{"type":"Topology","arcs":[],"objects":{"China_Ciudades_Pueblos":{"type":"GeometryCollection","geometries":[{"type":"Point","coordinates":[123.2779312133789,53.55232620239258],"properties":{"NOMBRE":"Wusuli"}},{"type":"Point","coordinates":[122.3441162109375,53.47615432739258],"properties":{"NOMBRE":"Mohe"}},{"type":"Point","coordinates":[122.10260009765625,53.3053092956543],"properties":{"NOMBRE":"Shang-lao-kou"}},{"type":"Point","coordinates":[120.65664672851562,53.131385803222656],"properties":{"NOMBRE":"Xikouzi"}},{"type":"Point","coordinates":[124.92903900146484,52.879756927490234],"properties":{"NOMBRE":"Ershiyizhan"}},{"type":"Point","coordinates":[126.0492935180664,52.77163314819336],"properties":{"NOMBRE":"Oupu"}},{"type":"Point","coordinates":[123.86921691894531,52.70449447631836],"properties":{"NOMBRE":"Pangu"}},{"type":"Point","coordinates":[125.44930267333984,52.550262451171875],"properties":{"NOMBRE":"Chung-hsing-chan"}},{"type":"Point","coordinates":[125.4166030883789,52.420860290527344],"properties":{"NOMBRE":"Shibazhan"}},{"type":"Point","coordinates":[124.7143325805664,52.3344612121582],"properties":{"NOMBRE":"Tahe"}},{"type":"Point","coordinates":[126.38218688964844,52.2836799621582],"properties":{"NOMBRE":"Chahayan"}},{"type":"Point","coordinates":[126.49835968017578,52.13508987426758],"properties":{"NOMBRE":"Xinjieji"}},{"type":"Point","coordinates":[126.01416015625,52.12455368041992],"properties":{"NOMBRE":"Xinghua"}},{"type":"Point","coordinates":[125.74214172363281,52.0611686706543],"properties":{"NOMBRE":"Hanjiaweizi"}},{"type":"Point","coordinates":[122.06395721435547,52.04879379272461],"properties":{"NOMBRE":"Mangui"}},{"type":"Point","coordinates":[124.5973129272461,51.944297790527344],"properties":{"NOMBRE":"Bizhou"}},{"type":"Point","coordinates":[123.58988189697266,51.92643737792969],"properties":{"NOMBRE":"Huzhong"}},{"type":"Point","coordinates":[125.7388687133789,51.79888153076172],"properties":{"NOMBRE":"Shiwuzhan"}},{"type":"Point","coordinates":[125.89811706542969,51.767337799072266],"properties":{"NOMBRE":"Xinglong"}},{"type":"Point","coordinates":[126.65809631347656,51.72058868408203],"properties":{"NOMBRE":"Huma"}},{"type":"Point","coordinates":[124.39798736572266,51.674720764160156],"properties":{"NOMBRE":"Xinlin"}},{"type":"Point","coordinates":[125.64888000488281,51.57684326171875],"properties":{"NOMBRE":"Shisizhan"}},{"type":"Point","coordinates":[124.25877380371094,51.460792541503906],"properties":{"NOMBRE":"Tayuan"}},{"type":"Point","coordinates":[121.3113021850586,51.24063491821289],"properties":{"NOMBRE":"Dalaigou"}},{"type":"Point","coordinates":[121.26113891601562,51.14791488647461],"properties":{"NOMBRE":"Jinlin"}},{"type":"Point","coordinates":[126.88390350341797,51.14415740966797],"properties":{"NOMBRE":"Sanqia"}},{"type":"Point","coordinates":[121.0541763305664,50.98903274536133],"properties":{"NOMBRE":"DERBUR"}},{"type":"Point","coordinates":[127.1640625,50.83686828613281],"properties":{"NOMBRE":"Daxintun"}},{"type":"Point","coordinates":[121.54644775390625,50.77982711791992],"properties":{"NOMBRE":"ERGUI ZUOQI"}},{"type":"Point","coordinates":[121.46292114257812,50.7320442199707],"properties":{"NOMBRE":"GEN HE"}},{"type":"Point","coordinates":[126.75995635986328,50.67583465576172],"properties":{"NOMBRE":"Huapiyao"}},{"type":"Point","coordinates":[122.49040222167969,50.65576934814453],"properties":{"NOMBRE":"Keyihe"}},{"type":"Point","coordinates":[121.57074737548828,50.64459228515625],"properties":{"NOMBRE":"YETULIHE"}},{"type":"Point","coordinates":[123.0518569946289,50.62783432006836],"properties":{"NOMBRE":"GANHE"}},{"type":"Point","coordinates":[122.87101745605469,50.627437591552734],"properties":{"NOMBRE":"So-tu-han"}},{"type":"Point","coordinates":[123.71101379394531,50.59721374511719],"properties":{"NOMBRE":"ALIHE"}},{"type":"Point","coordinates":[127.32372283935547,50.587249755859375],"properties":{"NOMBRE":"Zhangdiyingzi"}},{"type":"Point","coordinates":[123.18324279785156,50.57585525512695],"properties":{"NOMBRE":"Jiwen"}},{"type":"Point","coordinates":[123.32784271240234,50.56438064575195],"properties":{"NOMBRE":"Tieguya"}},{"type":"Point","coordinates":[125.81057739257812,50.53559875488281],"properties":{"NOMBRE":"Woduhe"}},{"type":"Point","coordinates":[121.67529296875,50.47548294067383],"properties":{"NOMBRE":"TULIHE"}},{"type":"Point","coordinates":[119.76487731933594,50.45579528808594],"properties":{"NOMBRE":"Sugin"}},{"type":"Point","coordinates":[120.09838104248047,50.45037841796875],"properties":{"NOMBRE":"Sanhe"}},{"type":"Point","coordinates":[124.11522674560547,50.42119598388672],"properties":{"NOMBRE":"JAGDAQI"}},{"type":"Point","coordinates":[126.94676971435547,50.35517501831055],"properties":{"NOMBRE":"Najinkouzi"}},{"type":"Point","coordinates":[125.71691131591797,50.280643463134766],"properties":{"NOMBRE":"Kou-li-kou-tzu"}},{"type":"Point","coordinates":[120.44774627685547,50.25501251220703],"properties":{"NOMBRE":"Shangkuli"}},{"type":"Point","coordinates":[126.4003677368164,50.25055694580078],"properties":{"NOMBRE":"Wudaogou"}},{"type":"Point","coordinates":[127.47885131835938,50.24205017089844],"properties":{"NOMBRE":"HEIHE"}},{"type":"Point","coordinates":[120.16338348388672,50.234066009521484],"properties":{"NOMBRE":"Labudalin"}},{"type":"Point","coordinates":[121.80484771728516,50.14126205444336],"properties":{"NOMBRE":"Xinzhangfang"}},{"type":"Point","coordinates":[126.18718719482422,50.13374328613281],"properties":{"NOMBRE":"Handaqi"}},{"type":"Point","coordinates":[127.51685333251953,50.114410400390625],"properties":{"NOMBRE":"Wudougou"}},{"type":"Point","coordinates":[126.1061782836914,50.06925964355469],"properties":{"NOMBRE":"Liaoyuan"}},{"type":"Point","coordinates":[127.47516632080078,49.97550964355469],"properties":{"NOMBRE":"Aihuixiang"}},{"type":"Point","coordinates":[121.38934326171875,49.88187026977539],"properties":{"NOMBRE":"Yuanlin"}},{"type":"Point","coordinates":[127.34156799316406,49.87670135498047],"properties":{"NOMBRE":"XIGANGZI"}},{"type":"Point","coordinates":[120.43158721923828,49.854454040527344],"properties":{"NOMBRE":"Na-chi"}},{"type":"Point","coordinates":[119.91261291503906,49.802490234375],"properties":{"NOMBRE":"Xabart"}},{"type":"Point","coordinates":[127.51154327392578,49.80020523071289],"properties":{"NOMBRE":"Dawujiazi"}},{"type":"Point","coordinates":[126.95716857910156,49.67531967163086],"properties":{"NOMBRE":"Erzhan"}},{"type":"Point","coordinates":[126.79379272460938,49.626285552978516],"properties":{"NOMBRE":"Sanzhan"}},{"type":"Point","coordinates":[117.43373107910156,49.584651947021484],"properties":{"NOMBRE":"MANZHOULI"}},{"type":"Point","coordinates":[128.4677276611328,49.57945251464844],"properties":{"NOMBRE":"QIKE"}},{"type":"Point","coordinates":[121.39691925048828,49.573551177978516],"properties":{"NOMBRE":"Orqohan"}},{"type":"Point","coordinates":[120.460693359375,49.53539276123047],"properties":{"NOMBRE":"Tien-ni-ho-tsun"}},{"type":"Point","coordinates":[127.76751708984375,49.51925277709961],"properties":{"NOMBRE":"Hadayan"}},{"type":"Point","coordinates":[126.24462890625,49.478309631347656],"properties":{"NOMBRE":"Taxi"}},{"type":"Point","coordinates":[125.2292709350586,49.47114562988281],"properties":{"NOMBRE":"Lianxing"}},{"type":"Point","coordinates":[128.73121643066406,49.46597671508789],"properties":{"NOMBRE":"Chelu"}},{"type":"Point","coordinates":[117.71543884277344,49.465335845947266],"properties":{"NOMBRE":"Jalai Nur"}},{"type":"Point","coordinates":[127.49128723144531,49.43771743774414],"properties":{"NOMBRE":"Yaotun"}},{"type":"Point","coordinates":[125.28077697753906,49.43040084838867],"properties":{"NOMBRE":"Ku-mo-tun"}},{"type":"Point","coordinates":[127.31318664550781,49.41995620727539],"properties":{"NOMBRE":"SUNWU"}},{"type":"Point","coordinates":[128.88912963867188,49.40494155883789],"properties":{"NOMBRE":"Shuanghe"}},{"type":"Point","coordinates":[126.02191162109375,49.369632720947266],"properties":{"NOMBRE":"Mu-no-ho"}},{"type":"Point","coordinates":[125.4847183227539,49.36027908325195],"properties":{"NOMBRE":"Bogenli"}},{"type":"Point","coordinates":[128.0602264404297,49.35993194580078],"properties":{"NOMBRE":"Xunhe"}},{"type":"Point","coordinates":[125.92700958251953,49.332401275634766],"properties":{"NOMBRE":"Shitougou"}},{"type":"Point","coordinates":[128.69989013671875,49.3310661315918],"properties":{"NOMBRE":"Erlonghe"}},{"type":"Point","coordinates":[119.42828369140625,49.32488250732422],"properties":{"NOMBRE":"Bayan Hure"}},{"type":"Point","coordinates":[128.33013916015625,49.2985725402832],"properties":{"NOMBRE":"Xinlitun"}},{"type":"Point","coordinates":[129.35028076171875,49.295928955078125],"properties":{"NOMBRE":"Pingyanghe"}},{"type":"Point","coordinates":[120.69930267333984,49.291873931884766],"properties":{"NOMBRE":"YAKESHI"}},{"type":"Point","coordinates":[129.6377716064453,49.27509307861328],"properties":{"NOMBRE":"FURAO"}},{"type":"Point","coordinates":[125.54915618896484,49.254249572753906],"properties":{"NOMBRE":"Xiangyang"}},{"type":"Point","coordinates":[119.71749877929688,49.223350524902344],"properties":{"NOMBRE":"HAILAR"}},{"type":"Point","coordinates":[120.41919708251953,49.22330093383789],"properties":{"NOMBRE":"Jaramtai"}},{"type":"Point","coordinates":[118.45596313476562,49.20302963256836],"properties":{"NOMBRE":"Hargant"}},{"type":"Point","coordinates":[129.7578887939453,49.17465591430664],"properties":{"NOMBRE":"Xueshuiwen"}},{"type":"Point","coordinates":[125.23446655273438,49.171688079833984],"properties":{"NOMBRE":"NENJIANG"}},{"type":"Point","coordinates":[119.32167053222656,49.14854049682617],"properties":{"NOMBRE":"Wu-ku-no-erh"}},{"type":"Point","coordinates":[127.2335433959961,49.13322830200195],"properties":{"NOMBRE":"Chenqing"}},{"type":"Point","coordinates":[127.9434814453125,49.12730026245117],"properties":{"NOMBRE":"Xine"}},{"type":"Point","coordinates":[125.39276885986328,49.119956970214844],"properties":{"NOMBRE":"Nan-chi-ling"}},{"type":"Point","coordinates":[124.64598846435547,49.114219665527344],"properties":{"NOMBRE":"Po-erh-chi"}},{"type":"Point","coordinates":[121.04122161865234,49.09208297729492],"properties":{"NOMBRE":"MIANDUHE"}},{"type":"Point","coordinates":[119.771728515625,49.044952392578125],"properties":{"NOMBRE":"Bayan Tohoi"}},{"type":"Point","coordinates":[127.06086730957031,49.04386901855469],"properties":{"NOMBRE":"Xiaoxingan"}},{"type":"Point","coordinates":[117.75775146484375,48.97342300415039],"properties":{"NOMBRE":"Jabhlangt"}},{"type":"Point","coordinates":[129.88340759277344,48.90950012207031],"properties":{"NOMBRE":"Shuanghedagang"}},{"type":"Point","coordinates":[126.89927673339844,48.907196044921875],"properties":{"NOMBRE":"Longmen"}},{"type":"Point","coordinates":[130.05116271972656,48.8902473449707],"properties":{"NOMBRE":"Daotiandi"}},{"type":"Point","coordinates":[130.39105224609375,48.888179779052734],"properties":{"NOMBRE":"CHAOYANG"}},{"type":"Point","coordinates":[125.25055694580078,48.87454605102539],"properties":{"NOMBRE":"Shuangshan"}},{"type":"Point","coordinates":[122.64022827148438,48.853790283203125],"properties":{"NOMBRE":"Ku-tun-lu-kuan"}},{"type":"Point","coordinates":[126.22080993652344,48.846675872802734],"properties":{"NOMBRE":"Weishan"}},{"type":"Point","coordinates":[121.89996337890625,48.760108947753906],"properties":{"NOMBRE":"BUGT"}},{"type":"Point","coordinates":[128.78842163085938,48.756561279296875],"properties":{"NOMBRE":"Kusite"}},{"type":"Point","coordinates":[118.77184295654297,48.721435546875],"properties":{"NOMBRE":"Xin Bulag Dong"}},{"type":"Point","coordinates":[87.03822326660156,48.696327209472656],"properties":{"NOMBRE":"Ko-la-ssu"}},{"type":"Point","coordinates":[126.6814193725586,48.673377990722656],"properties":{"NOMBRE":"Longzhen"}},{"type":"Point","coordinates":[116.81768035888672,48.661720275878906],"properties":{"NOMBRE":"ALTAN EMEL"}},{"type":"Point","coordinates":[119.75750732421875,48.63836669921875],"properties":{"NOMBRE":"Monggon Qulu"}},{"type":"Point","coordinates":[130.50563049316406,48.62222671508789],"properties":{"NOMBRE":"Baoxing"}},{"type":"Point","coordinates":[129.43165588378906,48.58737564086914],"properties":{"NOMBRE":"Wuyiling"}},{"type":"Point","coordinates":[126.60424041748047,48.57662582397461],"properties":{"NOMBRE":"Nemor"}},{"type":"Point","coordinates":[130.35848999023438,48.5699348449707],"properties":{"NOMBRE":"Xingnongcun"}},{"type":"Point","coordinates":[130.5917205810547,48.50691223144531],"properties":{"NOMBRE":"Malian"}},{"type":"Point","coordinates":[124.87513732910156,48.48517990112305],"properties":{"NOMBRE":"NEHE"}},{"type":"Point","coordinates":[124.57328033447266,48.4788703918457],"properties":{"NOMBRE":"Erkeqian"}},{"type":"Point","coordinates":[124.50684356689453,48.4737548828125],"properties":{"NOMBRE":"Nirji"}},{"type":"Point","coordinates":[129.5574188232422,48.451812744140625],"properties":{"NOMBRE":"Tangwanghe"}},{"type":"Point","coordinates":[116.17376708984375,48.437320709228516],"properties":{"NOMBRE":"Adun Qulu"}},{"type":"Point","coordinates":[119.75881958007812,48.42732238769531],"properties":{"NOMBRE":"Yimin"}},{"type":"Point","coordinates":[121.40564727783203,48.425758361816406],"properties":{"NOMBRE":"Chaor"}},{"type":"Point","coordinates":[130.23507690429688,48.37710952758789],"properties":{"NOMBRE":"Wulaga"}},{"type":"Point","coordinates":[134.2980194091797,48.36577224731445],"properties":{"NOMBRE":"FUYUANH"}},{"type":"Point","coordinates":[129.5222930908203,48.2845344543457],"properties":{"NOMBRE":"Xinging"}},{"type":"Point","coordinates":[126.51708984375,48.23674392700195],"properties":{"NOMBRE":"BEIAN"}},{"type":"Point","coordinates":[118.26129150390625,48.21341323852539],"properties":{"NOMBRE":"Amgalang"}},{"type":"Point","coordinates":[124.61115264892578,48.207252502441406],"properties":{"NOMBRE":"LAHA"}},{"type":"Point","coordinates":[123.45848083496094,48.12075424194336],"properties":{"NOMBRE":"NAJI"}},{"type":"Point","coordinates":[129.2398681640625,48.10915756225586],"properties":{"NOMBRE":"Wuying"}},{"type":"Point","coordinates":[133.28590393066406,48.08636474609375],"properties":{"NOMBRE":"Qindeli"}},{"type":"Point","coordinates":[126.73568725585938,48.05903625488281],"properties":{"NOMBRE":"Zhouguang"}},{"type":"Point","coordinates":[125.87093353271484,48.022483825683594],"properties":{"NOMBRE":"KESHAN"}},{"type":"Point","coordinates":[122.74282836914062,47.99876403808594],"properties":{"NOMBRE":"ZALANTUN"}},{"type":"Point","coordinates":[120.5840072631836,47.953609466552734],"properties":{"NOMBRE":"Hai-mi-tsai-mu"}},{"type":"Point","coordinates":[124.53117370605469,47.942447662353516],"properties":{"NOMBRE":"Xinxing"}},{"type":"Point","coordinates":[117.66301727294922,47.94072723388672],"properties":{"NOMBRE":"Asar"}},{"type":"Point","coordinates":[130.85812377929688,47.92192840576172],"properties":{"NOMBRE":"Xingdong"}},{"type":"Point","coordinates":[123.50721740722656,47.914527893066406],"properties":{"NOMBRE":"GANNAN"}},{"type":"Point","coordinates":[125.81260681152344,47.907875061035156],"properties":{"NOMBRE":"Binhe"}},{"type":"Point","coordinates":[125.30388641357422,47.876129150390625],"properties":{"NOMBRE":"YIAN"}},{"type":"Point","coordinates":[124.85753631591797,47.86767578125],"properties":{"NOMBRE":"Fuhai"}},{"type":"Point","coordinates":[88.12481689453125,47.83842468261719],"properties":{"NOMBRE":"ALTAY"}},{"type":"Point","coordinates":[124.4603500366211,47.8204460144043],"properties":{"NOMBRE":"Yang-chia-tun"}},{"type":"Point","coordinates":[124.44866943359375,47.78986358642578],"properties":{"NOMBRE":"FUYU"}},{"type":"Point","coordinates":[126.76580810546875,47.76795196533203],"properties":{"NOMBRE":"Tongbei"}},{"type":"Point","coordinates":[126.25715637207031,47.76506423950195],"properties":{"NOMBRE":"Qianfeng"}},{"type":"Point","coordinates":[122.82198333740234,47.74586486816406],"properties":{"NOMBRE":"Qinggis Han"}},{"type":"Point","coordinates":[127.33155059814453,47.7422981262207],"properties":{"NOMBRE":"Tui-tien"}},{"type":"Point","coordinates":[122.3814926147461,47.7401008605957],"properties":{"NOMBRE":"Mai-mai-liang-tzu"}},{"type":"Point","coordinates":[132.962158203125,47.727333068847656],"properties":{"NOMBRE":"Yongsijiang"}},{"type":"Point","coordinates":[128.67076110839844,47.722877502441406],"properties":{"NOMBRE":"Cuiluan"}},{"type":"Point","coordinates":[131.3398895263672,47.72161865234375],"properties":{"NOMBRE":"Zhaoxing"}},{"type":"Point","coordinates":[128.90606689453125,47.7191047668457],"properties":{"NOMBRE":"YICHUN"}},{"type":"Point","coordinates":[132.27017211914062,47.7049560546875],"properties":{"NOMBRE":"Shan-chia-liang-tzu"}},{"type":"Point","coordinates":[86.85639190673828,47.701419830322266],"properties":{"NOMBRE":"BURQIN"}},{"type":"Point","coordinates":[125.39833068847656,47.697235107421875],"properties":{"NOMBRE":"Baoquan"}},{"type":"Point","coordinates":[88.26119995117188,47.67028045654297],"properties":{"NOMBRE":"Han-min-chuang"}},{"type":"Point","coordinates":[126.83418273925781,47.657440185546875],"properties":{"NOMBRE":"Halbei"}},{"type":"Point","coordinates":[123.76445770263672,47.63814163208008],"properties":{"NOMBRE":"Ruiting"}},{"type":"Point","coordinates":[124.67858123779297,47.63764572143555],"properties":{"NOMBRE":"Fu-lu"}},{"type":"Point","coordinates":[131.83758544921875,47.617923736572266],"properties":{"NOMBRE":"Li-chia-yu-fang"}},{"type":"Point","coordinates":[125.03942108154297,47.61160659790039],"properties":{"NOMBRE":"Sanxing"}},{"type":"Point","coordinates":[126.08894348144531,47.593772888183594],"properties":{"NOMBRE":"BAIQUAN"}},{"type":"Point","coordinates":[131.65402221679688,47.57987594604492],"properties":{"NOMBRE":"Fu-hsing-tun"}},{"type":"Point","coordinates":[124.21974182128906,47.559749603271484],"properties":{"NOMBRE":"Taha"}},{"type":"Point","coordinates":[87.60295867919922,47.55406188964844],"properties":{"NOMBRE":"A-ko-chi"}},{"type":"Point","coordinates":[131.24754333496094,47.531192779541016],"properties":{"NOMBRE":"Suibin Nongchang"}},{"type":"Point","coordinates":[122.22810363769531,47.525634765625],"properties":{"NOMBRE":"San-pu-kuan"}},{"type":"Point","coordinates":[130.4810028076172,47.51228332519531],"properties":{"NOMBRE":"Shangzhi"}},{"type":"Point","coordinates":[129.33181762695312,47.51186752319336],"properties":{"NOMBRE":"Xilin"}},{"type":"Point","coordinates":[122.88742065429688,47.50745391845703],"properties":{"NOMBRE":"NIANZISHAN"}},{"type":"Point","coordinates":[133.89608764648438,47.50300979614258],"properties":{"NOMBRE":"Minzhucun"}},{"type":"Point","coordinates":[122.37330627441406,47.489864349365234],"properties":{"NOMBRE":"Moguqi"}},{"type":"Point","coordinates":[122.75785064697266,47.48533248901367],"properties":{"NOMBRE":"Longxing"}},{"type":"Point","coordinates":[125.3472671508789,47.46696090698242],"properties":{"NOMBRE":"Yilong"}},{"type":"Point","coordinates":[119.44243621826172,47.46471405029297],"properties":{"NOMBRE":"Handgai"}},{"type":"Point","coordinates":[126.95211029052734,47.45399475097656],"properties":{"NOMBRE":"HAILUN"}},{"type":"Point","coordinates":[131.28561401367188,47.449337005615234],"properties":{"NOMBRE":"Wang-chia-tien"}},{"type":"Point","coordinates":[127.24166870117188,47.43231201171875],"properties":{"NOMBRE":"Lu-ya-tung-tun"}},{"type":"Point","coordinates":[126.16388702392578,47.42782974243164],"properties":{"NOMBRE":"Sandaozhen"}},{"type":"Point","coordinates":[132.09825134277344,47.416378021240234],"properties":{"NOMBRE":"Suidong"}},{"type":"Point","coordinates":[129.4393768310547,47.406410217285156],"properties":{"NOMBRE":"Jinshantun"}},{"type":"Point","coordinates":[131.93617248535156,47.40570831298828],"properties":{"NOMBRE":"Liansheng"}},{"type":"Point","coordinates":[125.96161651611328,47.40074157714844],"properties":{"NOMBRE":"Zhongxing"}},{"type":"Point","coordinates":[132.43154907226562,47.36359405517578],"properties":{"NOMBRE":"Pei-ta-chieh-tun"}},{"type":"Point","coordinates":[132.00955200195312,47.345855712890625],"properties":{"NOMBRE":"Chi-liang-tzu"}},{"type":"Point","coordinates":[123.96497344970703,47.3440055847168],"properties":{"NOMBRE":"QIQIHAR"}},{"type":"Point","coordinates":[126.62893676757812,47.34004211425781],"properties":{"NOMBRE":"Gonghe"}},{"type":"Point","coordinates":[123.17849731445312,47.33757400512695],"properties":{"NOMBRE":"LONGJIANG"}},{"type":"Point","coordinates":[130.27867126464844,47.32627487182617],"properties":{"NOMBRE":"HEGANG"}},{"type":"Point","coordinates":[123.76632690429688,47.31617736816406],"properties":{"NOMBRE":"Meilisi"}},{"type":"Point","coordinates":[134.14088439941406,47.30589294433594],"properties":{"NOMBRE":"Dongan"}},{"type":"Point","coordinates":[131.84783935546875,47.27995681762695],"properties":{"NOMBRE":"Suibin"}},{"type":"Point","coordinates":[86.1322021484375,47.27922058105469],"properties":{"NOMBRE":"To-ssu-te"}},{"type":"Point","coordinates":[132.01612854003906,47.2625846862793],"properties":{"NOMBRE":"FUJIN"}},{"type":"Point","coordinates":[122.47911071777344,47.24885940551758],"properties":{"NOMBRE":"Kuan-men-shan"}},{"type":"Point","coordinates":[127.09645080566406,47.24433898925781],"properties":{"NOMBRE":"Suileng"}},{"type":"Point","coordinates":[89.80191040039062,47.211700439453125],"properties":{"NOMBRE":"Ko-ko-to-hai"}},{"type":"Point","coordinates":[123.62075805664062,47.20578384399414],"properties":{"NOMBRE":"HULAN ERGI"}},{"type":"Point","coordinates":[89.3037109375,47.20159912109375],"properties":{"NOMBRE":"Chi-chi-kou"}},{"type":"Point","coordinates":[133.567138671875,47.184574127197266],"properties":{"NOMBRE":"Dajiahe"}},{"type":"Point","coordinates":[124.86231994628906,47.179691314697266],"properties":{"NOMBRE":"LINDIAN"}},{"type":"Point","coordinates":[125.90444946289062,47.175113677978516],"properties":{"NOMBRE":"MINGSHUI"}},{"type":"Point","coordinates":[126.58271026611328,47.15827941894531],"properties":{"NOMBRE":"Kung-tzu-hou-liu-ching"}},{"type":"Point","coordinates":[123.80696868896484,47.153419494628906],"properties":{"NOMBRE":"ANGANGXI"}},{"type":"Point","coordinates":[123.89069366455078,47.1513557434082],"properties":{"NOMBRE":"Yushutun"}},{"type":"Point","coordinates":[127.33114624023438,47.148521423339844],"properties":{"NOMBRE":"SHANGJI"}},{"type":"Point","coordinates":[132.30516052246094,47.13471221923828],"properties":{"NOMBRE":"Tung-an-tun"}},{"type":"Point","coordinates":[126.43052673339844,47.1304817199707],"properties":{"NOMBRE":"Lunhe"}},{"type":"Point","coordinates":[129.27728271484375,47.12795639038086],"properties":{"NOMBRE":"Nancha"}},{"type":"Point","coordinates":[131.11016845703125,47.12150192260742],"properties":{"NOMBRE":"Xincheng"}},{"type":"Point","coordinates":[87.49219512939453,47.10992431640625],"properties":{"NOMBRE":"FUHAI"}},{"type":"Point","coordinates":[123.2355728149414,47.10911560058594],"properties":{"NOMBRE":"Jingxing"}},{"type":"Point","coordinates":[120.96985626220703,47.10283279418945],"properties":{"NOMBRE":"Ha-ma-ko-tsa"}},{"type":"Point","coordinates":[128.19058227539062,47.06938934326172],"properties":{"NOMBRE":"Wu-hua"}},{"type":"Point","coordinates":[131.15261840820312,47.06069564819336],"properties":{"NOMBRE":"Li-shu-tun"}},{"type":"Point","coordinates":[131.74050903320312,47.050113677978516],"properties":{"NOMBRE":"Huama"}},{"type":"Point","coordinates":[130.28782653808594,47.04943084716797],"properties":{"NOMBRE":"HELI"}},{"type":"Point","coordinates":[133.1053924560547,47.04787063598633],"properties":{"NOMBRE":"Xifeng"}},{"type":"Point","coordinates":[89.90629577636719,47.03521728515625],"properties":{"NOMBRE":"Ha-la-chun-ko"}},{"type":"Point","coordinates":[126.18231964111328,47.034751892089844],"properties":{"NOMBRE":"Xinghua"}},{"type":"Point","coordinates":[132.33685302734375,47.0188102722168],"properties":{"NOMBRE":"Erh-lin-tun"}},{"type":"Point","coordinates":[130.7198028564453,47.01359176635742],"properties":{"NOMBRE":"Yuelai"}},{"type":"Point","coordinates":[133.9604034423828,47.011444091796875],"properties":{"NOMBRE":"San-jen-pan-hsi-shan"}},{"type":"Point","coordinates":[125.79228210449219,46.996124267578125],"properties":{"NOMBRE":"Zhenxiang"}},{"type":"Point","coordinates":[128.05934143066406,46.986358642578125],"properties":{"NOMBRE":"TIELI"}},{"type":"Point","coordinates":[124.90894317626953,46.973934173583984],"properties":{"NOMBRE":"Zhangdifangzi"}},{"type":"Point","coordinates":[129.49122619628906,46.968528747558594],"properties":{"NOMBRE":"Chenming"}},{"type":"Point","coordinates":[127.7557601928711,46.96757888793945],"properties":{"NOMBRE":"Shuangfeng"}},{"type":"Point","coordinates":[89.1259994506836,46.96406173706055],"properties":{"NOMBRE":"Sarbulak"}},{"type":"Point","coordinates":[128.86607360839844,46.94589614868164],"properties":{"NOMBRE":"Langxiang"}},{"type":"Point","coordinates":[128.42276000976562,46.93522644042969],"properties":{"NOMBRE":"Shenshu"}},{"type":"Point","coordinates":[126.9840087890625,46.92293930053711],"properties":{"NOMBRE":"Sifangtai"}},{"type":"Point","coordinates":[131.97482299804688,46.91360855102539],"properties":{"NOMBRE":"Liulin"}},{"type":"Point","coordinates":[130.779052734375,46.897979736328125],"properties":{"NOMBRE":"Sujiadian"}},{"type":"Point","coordinates":[83.30754852294922,46.89701461791992],"properties":{"NOMBRE":"Ma-tou-pai"}},{"type":"Point","coordinates":[86.39155578613281,46.88872146606445],"properties":{"NOMBRE":"Utubulak"}},{"type":"Point","coordinates":[123.86711883544922,46.886505126953125],"properties":{"NOMBRE":"Chien-kuan-ti"}},{"type":"Point","coordinates":[85.1669921875,46.878841400146484],"properties":{"NOMBRE":"Ha-la-ka-tu-ho-a-tai-ka"}},{"type":"Point","coordinates":[127.51143646240234,46.87303161621094],"properties":{"NOMBRE":"Qingan"}},{"type":"Point","coordinates":[124.43718719482422,46.86338806152344],"properties":{"NOMBRE":"Taikang"}},{"type":"Point","coordinates":[125.70848083496094,46.85886764526367],"properties":{"NOMBRE":"Zhong he"}},{"type":"Point","coordinates":[133.21656799316406,46.857139587402344],"properties":{"NOMBRE":"Hongqiling"}},{"type":"Point","coordinates":[89.7025375366211,46.856597900390625],"properties":{"NOMBRE":"Karatunggu"}},{"type":"Point","coordinates":[131.03140258789062,46.849544525146484],"properties":{"NOMBRE":"Hsing-an-tsun"}},{"type":"Point","coordinates":[126.47865295410156,46.83452606201172],"properties":{"NOMBRE":"WANGKUI"}},{"type":"Point","coordinates":[127.29315185546875,46.824615478515625],"properties":{"NOMBRE":"Li-chia-tien"}},{"type":"Point","coordinates":[131.2426300048828,46.81058883666992],"properties":{"NOMBRE":"Jixian"}},{"type":"Point","coordinates":[130.36427307128906,46.79629898071289],"properties":{"NOMBRE":"JIAMUSI"}},{"type":"Point","coordinates":[134.01626586914062,46.79560089111328],"properties":{"NOMBRE":"Raohe"}},{"type":"Point","coordinates":[131.7370147705078,46.79412841796875],"properties":{"NOMBRE":"Shang-fu-tun"}},{"type":"Point","coordinates":[85.71541595458984,46.79001998901367],"properties":{"NOMBRE":"Hoboksar"}},{"type":"Point","coordinates":[123.67133331298828,46.78234100341797],"properties":{"NOMBRE":"Jiangqiao"}},{"type":"Point","coordinates":[131.79867553710938,46.77532196044922],"properties":{"NOMBRE":"Xinglongzhen"}},{"type":"Point","coordinates":[123.88876342773438,46.77210998535156],"properties":{"NOMBRE":"Erh-chan"}},{"type":"Point","coordinates":[120.30947875976562,46.770626068115234],"properties":{"NOMBRE":"Wuchagou"}},{"type":"Point","coordinates":[130.7013702392578,46.75444412231445],"properties":{"NOMBRE":"Taiping"}},{"type":"Point","coordinates":[82.97433471679688,46.74723815917969],"properties":{"NOMBRE":"TACHENG"}},{"type":"Point","coordinates":[130.4664306640625,46.726722717285156],"properties":{"NOMBRE":"Changfatun"}},{"type":"Point","coordinates":[122.899169921875,46.72423553466797],"properties":{"NOMBRE":"Inder"}},{"type":"Point","coordinates":[129.6302490234375,46.72257614135742],"properties":{"NOMBRE":"Haolianghe"}},{"type":"Point","coordinates":[129.89170837402344,46.722049713134766],"properties":{"NOMBRE":"TANGYUAN"}},{"type":"Point","coordinates":[127.69999694824219,46.71717834472656],"properties":{"NOMBRE":"Shih-chia-tien"}},{"type":"Point","coordinates":[131.1329803466797,46.71167755126953],"properties":{"NOMBRE":"Fuli"}},{"type":"Point","coordinates":[122.26226806640625,46.70158767700195],"properties":{"NOMBRE":"Hao-shih-tai"}},{"type":"Point","coordinates":[124.7735366821289,46.69038772583008],"properties":{"NOMBRE":"Lamadian"}},{"type":"Point","coordinates":[87.8864974975586,46.68827438354492],"properties":{"NOMBRE":"Pu-ko-ni-ko-tai"}},{"type":"Point","coordinates":[126.10487365722656,46.68360900878906],"properties":{"NOMBRE":"Qinggang"}},{"type":"Point","coordinates":[83.91594696044922,46.67942428588867],"properties":{"NOMBRE":"Pu-erh-ka-su-tai"}},{"type":"Point","coordinates":[90.37333679199219,46.66890335083008],"properties":{"NOMBRE":"Qinghe"}},{"type":"Point","coordinates":[126.44996643066406,46.64625930786133],"properties":{"NOMBRE":"Tongjiang"}},{"type":"Point","coordinates":[131.88829040527344,46.64365005493164],"properties":{"NOMBRE":"Qixinghe"}},{"type":"Point","coordinates":[86.53324890136719,46.635868072509766],"properties":{"NOMBRE":"Ho-lo-su-tu"}},{"type":"Point","coordinates":[125.54428100585938,46.63242721557617],"properties":{"NOMBRE":"RENMIN"}},{"type":"Point","coordinates":[126.9914321899414,46.63157272338867],"properties":{"NOMBRE":"SUIHUA"}},{"type":"Point","coordinates":[131.14691162109375,46.62871170043945],"properties":{"NOMBRE":"SHUANGYASHAN"}},{"type":"Point","coordinates":[123.05030822753906,46.6085319519043],"properties":{"NOMBRE":"Tazicheng"}},{"type":"Point","coordinates":[133.24119567871094,46.5943603515625],"properties":{"NOMBRE":"Tung-ta-kou"}},{"type":"Point","coordinates":[125.0169677734375,46.58833694458008],"properties":{"NOMBRE":"DAGING"}},{"type":"Point","coordinates":[128.11781311035156,46.5866813659668],"properties":{"NOMBRE":"Shen-lu-ying"}},{"type":"Point","coordinates":[90.75670623779297,46.583839416503906],"properties":{"NOMBRE":"Cha-kan-ho"}},{"type":"Point","coordinates":[131.1387176513672,46.564292907714844],"properties":{"NOMBRE":"Lingdong"}},{"type":"Point","coordinates":[131.68360900878906,46.559417724609375],"properties":{"NOMBRE":"Qixingtun"}},{"type":"Point","coordinates":[87.93533325195312,46.55370330810547],"properties":{"NOMBRE":"Ting-shan"}},{"type":"Point","coordinates":[133.65478515625,46.54261779785156],"properties":{"NOMBRE":"Wulindong"}},{"type":"Point","coordinates":[83.62104797363281,46.524173736572266],"properties":{"NOMBRE":"Emin"}},{"type":"Point","coordinates":[133.00051879882812,46.52396774291992],"properties":{"NOMBRE":"Dahezhen"}},{"type":"Point","coordinates":[85.9852523803711,46.521209716796875],"properties":{"NOMBRE":"Hoxtolgay"}},{"type":"Point","coordinates":[132.24557495117188,46.483314514160156],"properties":{"NOMBRE":"Chung-hsing-tung-tun"}},{"type":"Point","coordinates":[133.2810821533203,46.46142578125],"properties":{"NOMBRE":"Qingshankou"}},{"type":"Point","coordinates":[120.95250701904297,46.44770050048828],"properties":{"NOMBRE":"Man-chou"}},{"type":"Point","coordinates":[132.00799560546875,46.443992614746094],"properties":{"NOMBRE":"Shuangliuhe"}},{"type":"Point","coordinates":[127.08699035644531,46.440940856933594],"properties":{"NOMBRE":"Fuyuan"}},{"type":"Point","coordinates":[121.62513732910156,46.43821334838867],"properties":{"NOMBRE":"Chin-shan-tun"}},{"type":"Point","coordinates":[130.04563903808594,46.42445373535156],"properties":{"NOMBRE":"Yugong"}},{"type":"Point","coordinates":[130.66839599609375,46.41819381713867],"properties":{"NOMBRE":"Mengjiagang"}},{"type":"Point","coordinates":[125.31571960449219,46.407020568847656],"properties":{"NOMBRE":"ANDA"}},{"type":"Point","coordinates":[133.2118377685547,46.38957595825195],"properties":{"NOMBRE":"San-jen-pan"}},{"type":"Point","coordinates":[126.10772705078125,46.38888168334961],"properties":{"NOMBRE":"Taiping"}},{"type":"Point","coordinates":[123.4101333618164,46.3880500793457],"properties":{"NOMBRE":"TAILAI"}},{"type":"Point","coordinates":[127.87557983398438,46.37702941894531],"properties":{"NOMBRE":"Dongxing"}},{"type":"Point","coordinates":[83.82290649414062,46.373897552490234],"properties":{"NOMBRE":"Chahar Gadzar"}},{"type":"Point","coordinates":[88.70816040039062,46.371646881103516],"properties":{"NOMBRE":"Tieh-lo-o-mu"}},{"type":"Point","coordinates":[89.51123046875,46.368656158447266],"properties":{"NOMBRE":"Wu-li-ya-ssu-tai"}},{"type":"Point","coordinates":[133.55142211914062,46.35610580444336],"properties":{"NOMBRE":"Dumuhe"}},{"type":"Point","coordinates":[130.2139129638672,46.3422737121582],"properties":{"NOMBRE":"Tulongshan"}},{"type":"Point","coordinates":[86.28974914550781,46.340301513671875],"properties":{"NOMBRE":"Hsia-tzu-chieh"}},{"type":"Point","coordinates":[83.16814422607422,46.327903747558594],"properties":{"NOMBRE":"Dalbalbay"}},{"type":"Point","coordinates":[132.46792602539062,46.327754974365234],"properties":{"NOMBRE":"Jianshanzi"}},{"type":"Point","coordinates":[132.19691467285156,46.32551956176758],"properties":{"NOMBRE":"Baoqing"}},{"type":"Point","coordinates":[129.90623474121094,46.310611724853516],"properties":{"NOMBRE":"Tuanshanzi"}},{"type":"Point","coordinates":[129.55767822265625,46.306907653808594],"properties":{"NOMBRE":"YILAN"}},{"type":"Point","coordinates":[121.92442321777344,46.30644607543945],"properties":{"NOMBRE":"Qarsan"}},{"type":"Point","coordinates":[126.8511962890625,46.291900634765625],"properties":{"NOMBRE":"Shirencheng"}},{"type":"Point","coordinates":[123.38166809082031,46.262142181396484],"properties":{"NOMBRE":"Jieji"}},{"type":"Point","coordinates":[126.28677368164062,46.2594108581543],"properties":{"NOMBRE":"LANXI"}},{"type":"Point","coordinates":[126.63775634765625,46.25646209716797],"properties":{"NOMBRE":"Kangjinjing"}},{"type":"Point","coordinates":[128.55337524414062,46.25396728515625],"properties":{"NOMBRE":"Heping"}},{"type":"Point","coordinates":[122.89128112792969,46.24958419799805],"properties":{"NOMBRE":"Chien-ha-ta"}},{"type":"Point","coordinates":[118.48712158203125,46.24809646606445],"properties":{"NOMBRE":"Hsi-en-no-ho-ssu-mu"}},{"type":"Point","coordinates":[121.01260375976562,46.2420654296875],"properties":{"NOMBRE":"Ha-la-pa-la-tun"}},{"type":"Point","coordinates":[83.59102630615234,46.234710693359375],"properties":{"NOMBRE":"Kao-chi-tun-tai"}},{"type":"Point","coordinates":[120.36824035644531,46.23402404785156],"properties":{"NOMBRE":"Wu-lan-ho"}},{"type":"Point","coordinates":[125.62734985351562,46.2245979309082],"properties":{"NOMBRE":"Songzhan"}},{"type":"Point","coordinates":[124.60659790039062,46.220951080322266],"properties":{"NOMBRE":"Chang-chia-wei-tzu"}},{"type":"Point","coordinates":[130.52879333496094,46.21673583984375],"properties":{"NOMBRE":"Huanan"}},{"type":"Point","coordinates":[132.34767150878906,46.21297836303711],"properties":{"NOMBRE":"Chaoyang"}},{"type":"Point","coordinates":[132.52915954589844,46.20417022705078],"properties":{"NOMBRE":"Tung-so-lun"}},{"type":"Point","coordinates":[133.0784912109375,46.199493408203125],"properties":{"NOMBRE":"Dongfanghong"}},{"type":"Point","coordinates":[129.84750366210938,46.19345474243164],"properties":{"NOMBRE":"Daotaiqiao"}},{"type":"Point","coordinates":[129.296142578125,46.16826248168945],"properties":{"NOMBRE":"Qinghe"}},{"type":"Point","coordinates":[124.1383285522461,46.15314865112305],"properties":{"NOMBRE":"Talin Hiag"}},{"type":"Point","coordinates":[127.1780776977539,46.15217971801758],"properties":{"NOMBRE":"Xiji"}},{"type":"Point","coordinates":[132.1049346923828,46.13534927368164],"properties":{"NOMBRE":"Longtou"}},{"type":"Point","coordinates":[132.89317321777344,46.09611511230469],"properties":{"NOMBRE":"Wanfeng"}},{"type":"Point","coordinates":[123.27924346923828,46.08659362792969],"properties":{"NOMBRE":"DONGPING"}},{"type":"Point","coordinates":[127.40570068359375,46.075111389160156],"properties":{"NOMBRE":"BAYAN"}},{"type":"Point","coordinates":[123.71109771728516,46.07447052001953],"properties":{"NOMBRE":"Wukeshu"}},{"type":"Point","coordinates":[122.06358337402344,46.0687370300293],"properties":{"NOMBRE":"ULANHOT"}},{"type":"Point","coordinates":[125.98249053955078,46.06512451171875],"properties":{"NOMBRE":"Zhaodong"}},{"type":"Point","coordinates":[129.12570190429688,46.059661865234375],"properties":{"NOMBRE":"Xiangde"}},{"type":"Point","coordinates":[90.14221954345703,46.04207992553711],"properties":{"NOMBRE":"Ertai"}},{"type":"Point","coordinates":[124.80326080322266,46.029014587402344],"properties":{"NOMBRE":"Datong"}},{"type":"Point","coordinates":[125.59451293945312,46.015663146972656],"properties":{"NOMBRE":"CHANGWU"}},{"type":"Point","coordinates":[127.85492706298828,46.012290954589844],"properties":{"NOMBRE":"Hsieh-chia-wo-peng"}},{"type":"Point","coordinates":[125.3156509399414,45.99363327026367],"properties":{"NOMBRE":"Xingcheng"}},{"type":"Point","coordinates":[130.51170349121094,45.9911994934082],"properties":{"NOMBRE":"Woken"}},{"type":"Point","coordinates":[133.6492919921875,45.98827362060547],"properties":{"NOMBRE":"Huiou"}},{"type":"Point","coordinates":[126.6015396118164,45.986209869384766],"properties":{"NOMBRE":"HULAN"}},{"type":"Point","coordinates":[85.57617950439453,45.96944808959961],"properties":{"NOMBRE":"Huang-yang-chuan"}},{"type":"Point","coordinates":[128.74664306640625,45.96562194824219],"properties":{"NOMBRE":"TONGHE"}},{"type":"Point","coordinates":[131.90432739257812,45.96553421020508],"properties":{"NOMBRE":"Hsiao-chu"}},{"type":"Point","coordinates":[121.19033813476562,45.96344757080078],"properties":{"NOMBRE":"Hsin-an-tun"}},{"type":"Point","coordinates":[129.21778869628906,45.954898834228516],"properties":{"NOMBRE":"Daluomi"}},{"type":"Point","coordinates":[128.0448760986328,45.941986083984375],"properties":{"NOMBRE":"MULAN"}},{"type":"Point","coordinates":[128.38368225097656,45.938716888427734],"properties":{"NOMBRE":"Nonghe"}},{"type":"Point","coordinates":[83.59882354736328,45.9347038269043],"properties":{"NOMBRE":"Toli"}},{"type":"Point","coordinates":[127.8373031616211,45.91109848022461],"properties":{"NOMBRE":"Xindian"}},{"type":"Point","coordinates":[127.44782257080078,45.89916229248047],"properties":{"NOMBRE":"Lao-sung-chia"}},{"type":"Point","coordinates":[133.06954956054688,45.895782470703125],"properties":{"NOMBRE":"Liu-lin-tun"}},{"type":"Point","coordinates":[126.10105895996094,45.88166427612305],"properties":{"NOMBRE":"Duiqingshan"}},{"type":"Point","coordinates":[126.26957702636719,45.85215377807617],"properties":{"NOMBRE":"Wuzhan"}},{"type":"Point","coordinates":[123.19609832763672,45.846412658691406],"properties":{"NOMBRE":"ZHENLAI"}},{"type":"Point","coordinates":[127.76663208007812,45.840431213378906],"properties":{"NOMBRE":"Binan"}},{"type":"Point","coordinates":[125.75865936279297,45.84034729003906],"properties":{"NOMBRE":"Chang-chia-wo-peng"}},{"type":"Point","coordinates":[128.83387756347656,45.82908630371094],"properties":{"NOMBRE":"FANGZHENG"}},{"type":"Point","coordinates":[133.44491577148438,45.828041076660156],"properties":{"NOMBRE":"Chiao-chia-liang-tzu"}},{"type":"Point","coordinates":[132.49435424804688,45.82747268676758],"properties":{"NOMBRE":"Chi-hu-lin"}},{"type":"Point","coordinates":[129.68971252441406,45.8245964050293],"properties":{"NOMBRE":"Wutaohotun"}},{"type":"Point","coordinates":[121.14485168457031,45.80588150024414],"properties":{"NOMBRE":"Kai-fa-tun"}},{"type":"Point","coordinates":[128.05303955078125,45.7962532043457],"properties":{"NOMBRE":"Shengli"}},{"type":"Point","coordinates":[121.64440155029297,45.790626525878906],"properties":{"NOMBRE":"Yongan"}},{"type":"Point","coordinates":[128.6658477783203,45.78882598876953],"properties":{"NOMBRE":"Huifa"}},{"type":"Point","coordinates":[131.13381958007812,45.787620544433594],"properties":{"NOMBRE":"Ta-chi-chan"}},{"type":"Point","coordinates":[124.6316909790039,45.77644729614258],"properties":{"NOMBRE":"Daxing"}},{"type":"Point","coordinates":[127.0145263671875,45.77402877807617],"properties":{"NOMBRE":"Yung-tseng-yuan"}},{"type":"Point","coordinates":[125.40294647216797,45.76899719238281],"properties":{"NOMBRE":"FENGLE"}},{"type":"Point","coordinates":[132.97662353515625,45.766624450683594],"properties":{"NOMBRE":"Hulin"}},{"type":"Point","coordinates":[127.486328125,45.75692367553711],"properties":{"NOMBRE":"BINZHOU"}},{"type":"Point","coordinates":[126.62262725830078,45.755218505859375],"properties":{"NOMBRE":"HARBIN"}},{"type":"Point","coordinates":[122.54622650146484,45.753448486328125],"properties":{"NOMBRE":"Pingan"}},{"type":"Point","coordinates":[130.5696563720703,45.74314498901367],"properties":{"NOMBRE":"BOLI"}},{"type":"Point","coordinates":[118.41385650634766,45.73302459716797],"properties":{"NOMBRE":"Ulgai"}},{"type":"Point","coordinates":[127.91484832763672,45.72713088989258],"properties":{"NOMBRE":"Hui-sheng-shao-kuo"}},{"type":"Point","coordinates":[131.79165649414062,45.71223831176758],"properties":{"NOMBRE":"Pa-chien-tai-tun-liu-chu"}},{"type":"Point","coordinates":[125.88633728027344,45.70820236206055],"properties":{"NOMBRE":"Sizhan"}},{"type":"Point","coordinates":[124.36795043945312,45.706539154052734],"properties":{"NOMBRE":"Xinzhan"}},{"type":"Point","coordinates":[125.26828002929688,45.70423126220703],"properties":{"NOMBRE":"ZHAOZHOU"}},{"type":"Point","coordinates":[118.16454315185547,45.703983306884766],"properties":{"NOMBRE":"Dut-Nur"}},{"type":"Point","coordinates":[133.0418701171875,45.70256805419922],"properties":{"NOMBRE":"Ma-chia-liang-tsu"}},{"type":"Point","coordinates":[132.15345764160156,45.70140075683594],"properties":{"NOMBRE":"Yanggang"}},{"type":"Point","coordinates":[122.33531188964844,45.6894416809082],"properties":{"NOMBRE":"Wafang"}},{"type":"Point","coordinates":[124.84613800048828,45.66621398925781],"properties":{"NOMBRE":"Toutai"}},{"type":"Point","coordinates":[121.40257263183594,45.66154098510742],"properties":{"NOMBRE":"Liuhu"}},{"type":"Point","coordinates":[131.88975524902344,45.634239196777344],"properties":{"NOMBRE":"Peide"}},{"type":"Point","coordinates":[126.1878433227539,45.62995910644531],"properties":{"NOMBRE":"Taipingzhuang"}},{"type":"Point","coordinates":[122.83985900878906,45.61491012573242],"properties":{"NOMBRE":"BAICHENG"}},{"type":"Point","coordinates":[122.1166763305664,45.61326599121094],"properties":{"NOMBRE":"Ssu-ping-shan-tun"}},{"type":"Point","coordinates":[84.86727905273438,45.59688949584961],"properties":{"NOMBRE":"KARAMAY"}},{"type":"Point","coordinates":[133.3406219482422,45.587501525878906],"properties":{"NOMBRE":"Ni-kou-tzu"}},{"type":"Point","coordinates":[127.21546936035156,45.58628845214844],"properties":{"NOMBRE":"Pei-chao-hu-tzu-tien"}},{"type":"Point","coordinates":[123.76741790771484,45.58012771606445],"properties":{"NOMBRE":"Anguang"}},{"type":"Point","coordinates":[125.62035369873047,45.57219314575195],"properties":{"NOMBRE":"Sanzhan"}},{"type":"Point","coordinates":[124.53938293457031,45.54310989379883],"properties":{"NOMBRE":"Maoxing"}},{"type":"Point","coordinates":[126.38334655761719,45.53936004638672],"properties":{"NOMBRE":"Wuija"}},{"type":"Point","coordinates":[130.1634521484375,45.53911590576172],"properties":{"NOMBRE":"Hsi-pei-leng"}},{"type":"Point","coordinates":[131.86196899414062,45.53742599487305],"properties":{"NOMBRE":"Mishan"}},{"type":"Point","coordinates":[126.96769714355469,45.53194046020508],"properties":{"NOMBRE":"ACHENG"}},{"type":"Point","coordinates":[120.89047241210938,45.53035354614258],"properties":{"NOMBRE":"Tule Mod"}},{"type":"Point","coordinates":[132.02684020996094,45.51734924316406],"properties":{"NOMBRE":"Zhiyi"}},{"type":"Point","coordinates":[83.85932922363281,45.516212463378906],"properties":{"NOMBRE":"Miaoergou"}},{"type":"Point","coordinates":[132.75393676757812,45.51316833496094],"properties":{"NOMBRE":"Xinlitun"}},{"type":"Point","coordinates":[125.07695007324219,45.51128387451172],"properties":{"NOMBRE":"Zhaoyuan"}},{"type":"Point","coordinates":[116.96803283691406,45.50914764404297],"properties":{"NOMBRE":"ULIASTAI"}},{"type":"Point","coordinates":[131.78805541992188,45.503807067871094],"properties":{"NOMBRE":"Lianzhushan"}},{"type":"Point","coordinates":[124.28369903564453,45.500770568847656],"properties":{"NOMBRE":"DALAI"}},{"type":"Point","coordinates":[128.77333068847656,45.49995803833008],"properties":{"NOMBRE":"Zhanghe"}},{"type":"Point","coordinates":[116.27510833740234,45.4935302734375],"properties":{"NOMBRE":"Yu-sung-ko-erh"}},{"type":"Point","coordinates":[125.86239624023438,45.481422424316406],"properties":{"NOMBRE":"Tuchia-tun"}},{"type":"Point","coordinates":[132.24696350097656,45.44927978515625],"properties":{"NOMBRE":"Majiagang"}},{"type":"Point","coordinates":[128.3416290283203,45.44411087036133],"properties":{"NOMBRE":"YANSHOU"}},{"type":"Point","coordinates":[122.12999725341797,45.41396713256836],"properties":{"NOMBRE":"Dapaozi"}},{"type":"Point","coordinates":[131.61123657226562,45.411720275878906],"properties":{"NOMBRE":"Heitai"}},{"type":"Point","coordinates":[133.1195068359375,45.411376953125],"properties":{"NOMBRE":"Liangzi"}},{"type":"Point","coordinates":[123.44629669189453,45.39856719970703],"properties":{"NOMBRE":"Chiu-ho-tang"}},{"type":"Point","coordinates":[121.55175018310547,45.378990173339844],"properties":{"NOMBRE":"Tuquan"}},{"type":"Point","coordinates":[132.34222412109375,45.376338958740234],"properties":{"NOMBRE":"Hsiang-lung-kang"}},{"type":"Point","coordinates":[83.09130859375,45.37368392944336],"properties":{"NOMBRE":"Ho-chih-kai"}},{"type":"Point","coordinates":[126.31471252441406,45.3637809753418],"properties":{"NOMBRE":"SHUANGCHENG"}},{"type":"Point","coordinates":[131.38864135742188,45.36164855957031],"properties":{"NOMBRE":"Yen-shu-tun"}},{"type":"Point","coordinates":[125.4378662109375,45.360538482666016],"properties":{"NOMBRE":"Changchunling"}},{"type":"Point","coordinates":[131.06834411621094,45.352882385253906],"properties":{"NOMBRE":"Tung-pei-tuan"}},{"type":"Point","coordinates":[123.66216278076172,45.3388671875],"properties":{"NOMBRE":"Pingan"}},{"type":"Point","coordinates":[122.7697525024414,45.333309173583984],"properties":{"NOMBRE":"TAONAN"}},{"type":"Point","coordinates":[132.13412475585938,45.32432174682617],"properties":{"NOMBRE":"Yu-ta-tung"}},{"type":"Point","coordinates":[121.79696655273438,45.298152923583984],"properties":{"NOMBRE":"Ma-chi-la-ju-tun"}},{"type":"Point","coordinates":[132.93881225585938,45.296688079833984],"properties":{"NOMBRE":"Nan-lin-tzu"}},{"type":"Point","coordinates":[124.53453063964844,45.28654861450195],"properties":{"NOMBRE":"Xinmiao"}},{"type":"Point","coordinates":[130.97056579589844,45.282012939453125],"properties":{"NOMBRE":"JIXI"}},{"type":"Point","coordinates":[130.26048278808594,45.27848434448242],"properties":{"NOMBRE":"LINKOU"}},{"type":"Point","coordinates":[127.51496124267578,45.26677703857422],"properties":{"NOMBRE":"Maoershan"}},{"type":"Point","coordinates":[128.2776336669922,45.24720764160156],"properties":{"NOMBRE":"Yuanbao"}},{"type":"Point","coordinates":[90.51103973388672,45.239192962646484],"properties":{"NOMBRE":"Yu-an-hu"}},{"type":"Point","coordinates":[126.36988067626953,45.23892593383789],"properties":{"NOMBRE":"Chin-chien-tun"}},{"type":"Point","coordinates":[121.06086730957031,45.23701858520508],"properties":{"NOMBRE":"Pai-ya-ha-la"}},{"type":"Point","coordinates":[126.86509704589844,45.225685119628906],"properties":{"NOMBRE":"LALIN"}},{"type":"Point","coordinates":[124.79421997070312,45.21534729003906],"properties":{"NOMBRE":"Dawa"}},{"type":"Point","coordinates":[127.96914672851562,45.21347427368164],"properties":{"NOMBRE":"SHANGZHI"}},{"type":"Point","coordinates":[130.89389038085938,45.1944465637207],"properties":{"NOMBRE":"Hengshan"}},{"type":"Point","coordinates":[120.84253692626953,45.186279296875],"properties":{"NOMBRE":"Ta-li-pao-li-ka"}},{"type":"Point","coordinates":[131.23501586914062,45.17964172363281],"properties":{"NOMBRE":"Pingyang"}},{"type":"Point","coordinates":[122.63961029052734,45.17316818237305],"properties":{"NOMBRE":"Anding"}},{"type":"Point","coordinates":[124.82183074951172,45.1694450378418],"properties":{"NOMBRE":"FUYU"}},{"type":"Point","coordinates":[85.04764556884766,45.16532516479492],"properties":{"NOMBRE":"Xiaoguai"}},{"type":"Point","coordinates":[125.63289642333984,45.16409683227539],"properties":{"NOMBRE":"Chi-chang-tzu"}},{"type":"Point","coordinates":[128.76625061035156,45.157833099365234],"properties":{"NOMBRE":"Liang he"}},{"type":"Point","coordinates":[84.70729064941406,45.12574005126953],"properties":{"NOMBRE":"Qianshanlaoba"}},{"type":"Point","coordinates":[124.8157730102539,45.109405517578125],"properties":{"NOMBRE":"QIANGUOZHEN"}},{"type":"Point","coordinates":[125.72354125976562,45.10624694824219],"properties":{"NOMBRE":"Gongpengzi"}},{"type":"Point","coordinates":[130.694091796875,45.087093353271484],"properties":{"NOMBRE":"Lishuzhen"}},{"type":"Point","coordinates":[126.36100006103516,45.086551666259766],"properties":{"NOMBRE":"Bahao"}},{"type":"Point","coordinates":[123.25729370117188,45.079505920410156],"properties":{"NOMBRE":"Bamianshanzhao"}},{"type":"Point","coordinates":[132.87576293945312,45.0626220703125],"properties":{"NOMBRE":"Longwangmiao"}},{"type":"Point","coordinates":[128.0719757080078,45.0550422668457],"properties":{"NOMBRE":"YIMIANPO"}},{"type":"Point","coordinates":[84.39146423339844,45.04887771606445],"properties":{"NOMBRE":"Erh-tai"}},{"type":"Point","coordinates":[127.21398162841797,45.03681182861328],"properties":{"NOMBRE":"Changpu"}},{"type":"Point","coordinates":[124.98693084716797,45.024436950683594],"properties":{"NOMBRE":"Qijiazi"}},{"type":"Point","coordinates":[131.19825744628906,45.02300262451172],"properties":{"NOMBRE":"Hsing-lung-chieh"}},{"type":"Point","coordinates":[131.43154907226562,45.01770782470703],"properties":{"NOMBRE":"Chung-chien-shan"}},{"type":"Point","coordinates":[124.01995086669922,44.99308395385742],"properties":{"NOMBRE":"Qianan"}},{"type":"Point","coordinates":[126.03034210205078,44.987091064453125],"properties":{"NOMBRE":"Sanchahe"}},{"type":"Point","coordinates":[81.0484848022461,44.986427307128906],"properties":{"NOMBRE":"Wenquan"}},{"type":"Point","coordinates":[126.31372833251953,44.98517990112305],"properties":{"NOMBRE":"Gongpeng"}},{"type":"Point","coordinates":[126.88739776611328,44.97229766845703],"properties":{"NOMBRE":"Sihe"}},{"type":"Point","coordinates":[128.25250244140625,44.97062683105469],"properties":{"NOMBRE":"Weihe"}},{"type":"Point","coordinates":[125.67566680908203,44.96797180175781],"properties":{"NOMBRE":"Wujiazhan"}},{"type":"Point","coordinates":[123.22563934326172,44.94758987426758],"properties":{"NOMBRE":"Xiawazi"}},{"type":"Point","coordinates":[86.20648956298828,44.94569396972656],"properties":{"NOMBRE":"Mo-so-wan"}},{"type":"Point","coordinates":[84.50629425048828,44.93410110473633],"properties":{"NOMBRE":"Xinchepaizi"}},{"type":"Point","coordinates":[130.54193115234375,44.924800872802734],"properties":{"NOMBRE":"BAMIANTONG"}},{"type":"Point","coordinates":[127.15347290039062,44.91587448120117],"properties":{"NOMBRE":"WUCHANG"}},{"type":"Point","coordinates":[127.610107421875,44.90748596191406],"properties":{"NOMBRE":"Shengli"}},{"type":"Point","coordinates":[122.81043243408203,44.902252197265625],"properties":{"NOMBRE":"Sijingzi"}},{"type":"Point","coordinates":[82.06681823730469,44.90181350708008],"properties":{"NOMBRE":"Bole"}},{"type":"Point","coordinates":[119.82837677001953,44.899070739746094],"properties":{"NOMBRE":"Nudam"}},{"type":"Point","coordinates":[115.4233627319336,44.89669418334961],"properties":{"NOMBRE":"Tai-le-min-su-mu"}},{"type":"Point","coordinates":[120.24609375,44.89060974121094],"properties":{"NOMBRE":"Horoo"}},{"type":"Point","coordinates":[121.8134536743164,44.88621139526367],"properties":{"NOMBRE":"Golin Baixing"}},{"type":"Point","coordinates":[128.44297790527344,44.880977630615234],"properties":{"NOMBRE":"Yabuli"}},{"type":"Point","coordinates":[127.54891967773438,44.8582649230957],"properties":{"NOMBRE":"Lancaiqiao"}},{"type":"Point","coordinates":[116.36058044433594,44.83639907836914],"properties":{"NOMBRE":"Qog Ul"}},{"type":"Point","coordinates":[122.42500305175781,44.82917022705078],"properties":{"NOMBRE":"Xinglongshan"}},{"type":"Point","coordinates":[85.57855987548828,44.822357177734375],"properties":{"NOMBRE":"Pao-tai"}},{"type":"Point","coordinates":[126.55406188964844,44.82096481323242],"properties":{"NOMBRE":"YUSHU"}},{"type":"Point","coordinates":[121.23335266113281,44.815826416015625],"properties":{"NOMBRE":"Nu-nu-ko-chi-tun"}},{"type":"Point","coordinates":[85.06405639648438,44.80131530761719],"properties":{"NOMBRE":"Liu-lu"}},{"type":"Point","coordinates":[129.06985473632812,44.80118179321289],"properties":{"NOMBRE":"Hengdaohezi"}},{"type":"Point","coordinates":[123.08277130126953,44.801143646240234],"properties":{"NOMBRE":"KAITONG"}},{"type":"Point","coordinates":[126.1521224975586,44.791568756103516],"properties":{"NOMBRE":"Wukeshu"}},{"type":"Point","coordinates":[86.5574722290039,44.78887939453125],"properties":{"NOMBRE":"Hsi-ying"}},{"type":"Point","coordinates":[120.77864074707031,44.78752136230469],"properties":{"NOMBRE":"Ma-la-ka"}},{"type":"Point","coordinates":[118.75760650634766,44.787139892578125],"properties":{"NOMBRE":"Han Ul"}},{"type":"Point","coordinates":[117.84586334228516,44.78107452392578],"properties":{"NOMBRE":"Unegt"}},{"type":"Point","coordinates":[126.42347717285156,44.7764778137207],"properties":{"NOMBRE":"Minjia"}},{"type":"Point","coordinates":[125.65431213378906,44.77330780029297],"properties":{"NOMBRE":"Kaoshan"}},{"type":"Point","coordinates":[129.6841278076172,44.767189025878906],"properties":{"NOMBRE":"Chaihe"}},{"type":"Point","coordinates":[128.6014862060547,44.7440299987793],"properties":{"NOMBRE":"Erh-shih-chi-li"}},{"type":"Point","coordinates":[126.95072937011719,44.710514068603516],"properties":{"NOMBRE":"Tuqiaozi"}},{"type":"Point","coordinates":[124.4594497680664,44.709632873535156],"properties":{"NOMBRE":"Haxat"}},{"type":"Point","coordinates":[127.21250915527344,44.70817947387695],"properties":{"NOMBRE":"Shanhetun"}},{"type":"Point","coordinates":[130.53857421875,44.69084167480469],"properties":{"NOMBRE":"Maqiaohe"}},{"type":"Point","coordinates":[130.4569854736328,44.68290710449219],"properties":{"NOMBRE":"Xiachengzi"}},{"type":"Point","coordinates":[129.6778564453125,44.67631912231445],"properties":{"NOMBRE":"HUALIN"}},{"type":"Point","coordinates":[84.84475708007812,44.67239761352539],"properties":{"NOMBRE":"Nan-tsun"}},{"type":"Point","coordinates":[125.11666107177734,44.66856002807617],"properties":{"NOMBRE":"Halahai"}},{"type":"Point","coordinates":[120.60275268554688,44.6505126953125],"properties":{"NOMBRE":"Ku-lung-shan"}},{"type":"Point","coordinates":[124.76820373535156,44.64219665527344],"properties":{"NOMBRE":"Shang-lung-chuan"}},{"type":"Point","coordinates":[128.2267303466797,44.6381950378418],"properties":{"NOMBRE":"Yushu"}},{"type":"Point","coordinates":[85.79391479492188,44.63473129272461],"properties":{"NOMBRE":"LAOSHANWAN"}},{"type":"Point","coordinates":[83.15325927734375,44.62764358520508],"properties":{"NOMBRE":"Shaquanzi"}},{"type":"Point","coordinates":[115.26402282714844,44.62689971923828],"properties":{"NOMBRE":"Wen-kung-huo-lo-erh-su-mu"}},{"type":"Point","coordinates":[82.12324523925781,44.6137580871582],"properties":{"NOMBRE":"Wutai"}},{"type":"Point","coordinates":[119.72667694091797,44.60857009887695],"properties":{"NOMBRE":"Hoiruhosho"}},{"type":"Point","coordinates":[82.89057922363281,44.605735778808594],"properties":{"NOMBRE":"JINGHE"}},{"type":"Point","coordinates":[116.66966247558594,44.59773635864258],"properties":{"NOMBRE":"Ha-ko-mo-ssu-su-mu"}},{"type":"Point","coordinates":[89.97651672363281,44.5972900390625],"properties":{"NOMBRE":"Jiangjunmiao"}},{"type":"Point","coordinates":[121.7534408569336,44.59368896484375],"properties":{"NOMBRE":"Boroaira"}},{"type":"Point","coordinates":[123.15630340576172,44.5927848815918],"properties":{"NOMBRE":"Bianzhao"}},{"type":"Point","coordinates":[117.60558319091797,44.58641815185547],"properties":{"NOMBRE":"Bayan Ul Hot"}},{"type":"Point","coordinates":[127.17569732666016,44.583396911621094],"properties":{"NOMBRE":"Pingan"}},{"type":"Point","coordinates":[129.611083984375,44.578643798828125],"properties":{"NOMBRE":"MUDANJIANG"}},{"type":"Point","coordinates":[117.77134704589844,44.57345962524414],"properties":{"NOMBRE":"To-i-lu-mu-yeh-la"}},{"type":"Point","coordinates":[129.3831787109375,44.5665283203125],"properties":{"NOMBRE":"HAILIN"}},{"type":"Point","coordinates":[120.90229797363281,44.55359649658203],"properties":{"NOMBRE":"Lubei"}},{"type":"Point","coordinates":[83.55792236328125,44.547237396240234],"properties":{"NOMBRE":"To-to"}},{"type":"Point","coordinates":[86.67484283447266,44.536014556884766],"properties":{"NOMBRE":"Cheng-fan-hu"}},{"type":"Point","coordinates":[90.35855102539062,44.535606384277344],"properties":{"NOMBRE":"Lao-chun-miao"}},{"type":"Point","coordinates":[125.70474243164062,44.528526306152344],"properties":{"NOMBRE":"DEHUI"}},{"type":"Point","coordinates":[130.26902770996094,44.51676940917969],"properties":{"NOMBRE":"MULENG"}},{"type":"Point","coordinates":[121.44149017333984,44.503387451171875],"properties":{"NOMBRE":"Dolod"}},{"type":"Point","coordinates":[122.65154266357422,44.501495361328125],"properties":{"NOMBRE":"Zhanyu"}},{"type":"Point","coordinates":[119.20374298095703,44.48983383178711],"properties":{"NOMBRE":"Wu-erh-chi-tsun"}},{"type":"Point","coordinates":[113.08168029785156,44.48625564575195],"properties":{"NOMBRE":"Sha-erh-hu-tu-ko"}},{"type":"Point","coordinates":[126.51905059814453,44.481449127197266],"properties":{"NOMBRE":"Fate"}},{"type":"Point","coordinates":[112.66705322265625,44.47882843017578],"properties":{"NOMBRE":"Hoh Tolgoin Sum"}},{"type":"Point","coordinates":[128.9259490966797,44.46309280395508],"properties":{"NOMBRE":"Changting"}},{"type":"Point","coordinates":[117.1124267578125,44.453514099121094],"properties":{"NOMBRE":"Huqid Wanggin Sum"}},{"type":"Point","coordinates":[114.51863861083984,44.44920349121094],"properties":{"NOMBRE":"Kun-she-an-ta-an-su-mu"}},{"type":"Point","coordinates":[84.52003479003906,44.44451904296875],"properties":{"NOMBRE":"Pu-erh-ta-shu"}},{"type":"Point","coordinates":[91.82605743408203,44.43442916870117],"properties":{"NOMBRE":"Chih-fang"}},{"type":"Point","coordinates":[84.6758041381836,44.43296432495117],"properties":{"NOMBRE":"USU"}},{"type":"Point","coordinates":[120.05814361572266,44.43252182006836],"properties":{"NOMBRE":"Holoboo Hushuu"}},{"type":"Point","coordinates":[84.89842224121094,44.42851257324219],"properties":{"NOMBRE":"Kuytun"}},{"type":"Point","coordinates":[122.33242797851562,44.42679214477539],"properties":{"NOMBRE":"Tariinzu"}},{"type":"Point","coordinates":[125.17524719238281,44.42095947265625],"properties":{"NOMBRE":"NONGAN"}},{"type":"Point","coordinates":[126.94695281982422,44.40778732299805],"properties":{"NOMBRE":"SHULAN"}},{"type":"Point","coordinates":[130.31272888183594,44.4050178527832],"properties":{"NOMBRE":"Quanyan"}},{"type":"Point","coordinates":[87.5344467163086,44.403377532958984],"properties":{"NOMBRE":"Hsia-wu-tung-wo-tzu"}},{"type":"Point","coordinates":[123.19135284423828,44.397239685058594],"properties":{"NOMBRE":"Taipingchuan"}},{"type":"Point","coordinates":[131.14036560058594,44.39558410644531],"properties":{"NOMBRE":"Suifenhe"}},{"type":"Point","coordinates":[124.62753295898438,44.39341354370117],"properties":{"NOMBRE":"Fulongquan"}},{"type":"Point","coordinates":[121.75376892089844,44.3780517578125],"properties":{"NOMBRE":"Hagomancha"}},{"type":"Point","coordinates":[118.15210723876953,44.36965560913086],"properties":{"NOMBRE":"Deyansuma"}},{"type":"Point","coordinates":[126.3463363647461,44.367713928222656],"properties":{"NOMBRE":"Qitamu"}},{"type":"Point","coordinates":[129.46676635742188,44.33525848388672],"properties":{"NOMBRE":"NINGAN"}},{"type":"Point","coordinates":[85.6171646118164,44.32435607910156],"properties":{"NOMBRE":"Shawan"}},{"type":"Point","coordinates":[117.65409088134766,44.32262420654297],"properties":{"NOMBRE":"Bayanbulag"}},{"type":"Point","coordinates":[84.85025787353516,44.32228469848633],"properties":{"NOMBRE":"DUSHANZI"}},{"type":"Point","coordinates":[125.36327362060547,44.308631896972656],"properties":{"NOMBRE":"Baojia"}},{"type":"Point","coordinates":[113.3224105834961,44.30708694458008],"properties":{"NOMBRE":"Bayan Ul"}},{"type":"Point","coordinates":[86.22005462646484,44.30234909057617],"properties":{"NOMBRE":"MANAS"}},{"type":"Point","coordinates":[86.03799438476562,44.299800872802734],"properties":{"NOMBRE":"SHIHEZI"}},{"type":"Point","coordinates":[87.91567993164062,44.29391860961914],"properties":{"NOMBRE":"Liu-yun-hu"}},{"type":"Point","coordinates":[126.79651641845703,44.28974914550781],"properties":{"NOMBRE":"Jishu"}},{"type":"Point","coordinates":[114.22857666015625,44.27981185913086],"properties":{"NOMBRE":"Lin-po-nito"}},{"type":"Point","coordinates":[123.98876953125,44.27314376831055],"properties":{"NOMBRE":"Changling"}},{"type":"Point","coordinates":[122.82234954833984,44.25543212890625],"properties":{"NOMBRE":"Moshikoinzu"}},{"type":"Point","coordinates":[122.3056869506836,44.2535400390625],"properties":{"NOMBRE":"Hagensumu"}},{"type":"Point","coordinates":[89.1107406616211,44.24005126953125],"properties":{"NOMBRE":"Ssu-chang-hu"}},{"type":"Point","coordinates":[118.57808685302734,44.2354850769043],"properties":{"NOMBRE":"Subrag"}},{"type":"Point","coordinates":[124.55291748046875,44.206661224365234],"properties":{"NOMBRE":"Taipingshan"}},{"type":"Point","coordinates":[93.3128662109375,44.20586395263672],"properties":{"NOMBRE":"Santanghu"}},{"type":"Point","coordinates":[120.9001235961914,44.20580291748047],"properties":{"NOMBRE":"Qabagt"}},{"type":"Point","coordinates":[88.47451782226562,44.19234848022461],"properties":{"NOMBRE":"Tzu-ni-chuan"}},{"type":"Point","coordinates":[123.70378875732422,44.19166946411133],"properties":{"NOMBRE":"Qianqihao"}},{"type":"Point","coordinates":[86.89411926269531,44.188018798828125],"properties":{"NOMBRE":"HUTUBI"}},{"type":"Point","coordinates":[86.5865707397461,44.17731857299805],"properties":{"NOMBRE":"Tu-chl-li"}},{"type":"Point","coordinates":[124.29495239257812,44.170291900634766],"properties":{"NOMBRE":"Haiqing"}},{"type":"Point","coordinates":[80.46017456054688,44.16368103027344],"properties":{"NOMBRE":"Korgas"}},{"type":"Point","coordinates":[87.52137756347656,44.161895751953125],"properties":{"NOMBRE":"Chien-te"}},{"type":"Point","coordinates":[130.74485778808594,44.15851593017578],"properties":{"NOMBRE":"Shatung"}},{"type":"Point","coordinates":[121.67060852050781,44.15707015991211],"properties":{"NOMBRE":"Jurh"}},{"type":"Point","coordinates":[88.14637756347656,44.15577697753906],"properties":{"NOMBRE":"Wu-kung-liang"}},{"type":"Point","coordinates":[125.83229064941406,44.15410614013672],"properties":{"NOMBRE":"JIUTAI"}},{"type":"Point","coordinates":[117.59567260742188,44.153778076171875],"properties":{"NOMBRE":"Mi-sung-miao"}},{"type":"Point","coordinates":[87.98133087158203,44.15251541137695],"properties":{"NOMBRE":"FUKANG"}},{"type":"Point","coordinates":[89.70333099365234,44.13939666748047],"properties":{"NOMBRE":"Hsin-erh-tun"}},{"type":"Point","coordinates":[121.30423736572266,44.133209228515625],"properties":{"NOMBRE":"Ssu-chia-tzu"}},{"type":"Point","coordinates":[119.29802703857422,44.12874221801758],"properties":{"NOMBRE":"Tan-chia-wan"}},{"type":"Point","coordinates":[90.39051818847656,44.12834548950195],"properties":{"NOMBRE":"San-hsi"}},{"type":"Point","coordinates":[123.31986999511719,44.12596130371094],"properties":{"NOMBRE":"Baokang"}},{"type":"Point","coordinates":[129.21519470214844,44.10941696166992],"properties":{"NOMBRE":"DONGJINGCHENG"}},{"type":"Point","coordinates":[122.28498077392578,44.100852966308594],"properties":{"NOMBRE":"Yolin Mod"}},{"type":"Point","coordinates":[88.3505859375,44.09263610839844],"properties":{"NOMBRE":"Ganhezi"}},{"type":"Point","coordinates":[88.89287567138672,44.088348388671875],"properties":{"NOMBRE":"San-tai"}},{"type":"Point","coordinates":[85.38304901123047,44.083675384521484],"properties":{"NOMBRE":"Tao-chia-ti"}},{"type":"Point","coordinates":[126.47071075439453,44.08210754394531],"properties":{"NOMBRE":"Wulajie"}},{"type":"Point","coordinates":[124.67579650878906,44.080196380615234],"properties":{"NOMBRE":"Shuangchengpu"}},{"type":"Point","coordinates":[91.4181137084961,44.07394790649414],"properties":{"NOMBRE":"Tsai-tzu-ti"}},{"type":"Point","coordinates":[85.7994384765625,44.067169189453125],"properties":{"NOMBRE":"Tung-ti"}},{"type":"Point","coordinates":[80.77130126953125,44.06388473510742],"properties":{"NOMBRE":"Shuiding"}},{"type":"Point","coordinates":[123.8627700805664,44.04679489135742],"properties":{"NOMBRE":"Xinanzhen"}},{"type":"Point","coordinates":[126.8738784790039,44.0439567565918],"properties":{"NOMBRE":"Tianbei"}},{"type":"Point","coordinates":[117.75856018066406,44.04374313354492],"properties":{"NOMBRE":"Dashuiboluo"}},{"type":"Point","coordinates":[93.8531265258789,44.03434371948242],"properties":{"NOMBRE":"Fan-fang-kou"}},{"type":"Point","coordinates":[121.9988784790039,44.03273010253906],"properties":{"NOMBRE":"XEBERT"}},{"type":"Point","coordinates":[122.98564910888672,44.02963638305664],"properties":{"NOMBRE":"JAMT"}},{"type":"Point","coordinates":[89.582275390625,44.024993896484375],"properties":{"NOMBRE":"QITAI"}},{"type":"Point","coordinates":[114.96642303466797,44.018409729003906],"properties":{"NOMBRE":"Xin Hot"}},{"type":"Point","coordinates":[131.2354736328125,44.018070220947266],"properties":{"NOMBRE":"San-cha-kou"}},{"type":"Point","coordinates":[87.29497528076172,44.01544189453125],"properties":{"NOMBRE":"CHANGJI"}},{"type":"Point","coordinates":[89.18301391601562,43.995506286621094],"properties":{"NOMBRE":"JIMSAR"}},{"type":"Point","coordinates":[81.5172348022461,43.983333587646484],"properties":{"NOMBRE":"I-ning-hsieng"}},{"type":"Point","coordinates":[85.36467742919922,43.979515075683594],"properties":{"NOMBRE":"Mei-yao"}},{"type":"Point","coordinates":[119.38671875,43.978858947753906],"properties":{"NOMBRE":"Lingdong"}},{"type":"Point","coordinates":[126.22435760498047,43.97484588623047],"properties":{"NOMBRE":"Huapichong"}},{"type":"Point","coordinates":[89.8250732421875,43.960208892822266],"properties":{"NOMBRE":"Ssu-shih-litun"}},{"type":"Point","coordinates":[123.40828704833984,43.95989990234375],"properties":{"NOMBRE":"Maolin"}},{"type":"Point","coordinates":[87.64974975585938,43.95865249633789],"properties":{"NOMBRE":"Miquan"}},{"type":"Point","coordinates":[82.2176742553711,43.953819274902344],"properties":{"NOMBRE":"Ta-sa-pu-tai"}},{"type":"Point","coordinates":[82.21692657470703,43.95294952392578],"properties":{"NOMBRE":"Ta-sa-pu-tai"}},{"type":"Point","coordinates":[116.05903625488281,43.936988830566406],"properties":{"NOMBRE":"XILINHOT"}},{"type":"Point","coordinates":[85.6712875366211,43.93612289428711],"properties":{"NOMBRE":"Po-lo-tung-ku"}},{"type":"Point","coordinates":[124.41564178466797,43.93409729003906],"properties":{"NOMBRE":"Yangdachengzi"}},{"type":"Point","coordinates":[131.0628204345703,43.934085845947266],"properties":{"NOMBRE":"Daduchuan"}},{"type":"Point","coordinates":[118.99490356445312,43.93352127075195],"properties":{"NOMBRE":"Erh-tao-ying-tzu"}},{"type":"Point","coordinates":[86.04312896728516,43.92499923706055],"properties":{"NOMBRE":"Qingshuihezi"}},{"type":"Point","coordinates":[118.2287826538086,43.92470169067383],"properties":{"NOMBRE":"Julqin"}},{"type":"Point","coordinates":[87.78865051269531,43.924644470214844],"properties":{"NOMBRE":"Tieh-chang-kou"}},{"type":"Point","coordinates":[117.93473815917969,43.913516998291016],"properties":{"NOMBRE":"Hsing-lung-tsun"}},{"type":"Point","coordinates":[81.30274200439453,43.9099006652832],"properties":{"NOMBRE":"YINING"}},{"type":"Point","coordinates":[121.15252685546875,43.8946418762207],"properties":{"NOMBRE":"Jarigi Ayl"}},{"type":"Point","coordinates":[125.87255859375,43.89328384399414],"properties":{"NOMBRE":"Bonihe"}},{"type":"Point","coordinates":[119.77821350097656,43.884822845458984],"properties":{"NOMBRE":"Tao-chia-tuan"}},{"type":"Point","coordinates":[125.31265258789062,43.881317138671875],"properties":{"NOMBRE":"CHANGCHUNG"}},{"type":"Point","coordinates":[124.75940704345703,43.88084030151367],"properties":{"NOMBRE":"Huaidezhen"}},{"type":"Point","coordinates":[127.33651733398438,43.87993621826172],"properties":{"NOMBRE":"Xinzhan"}},{"type":"Point","coordinates":[120.08944702148438,43.87406921386719],"properties":{"NOMBRE":"TIANSHAN"}},{"type":"Point","coordinates":[126.56706237792969,43.850215911865234],"properties":{"NOMBRE":"JILIN"}},{"type":"Point","coordinates":[113.71365356445312,43.8472785949707],"properties":{"NOMBRE":"Mandalt"}},{"type":"Point","coordinates":[87.2829360961914,43.845916748046875],"properties":{"NOMBRE":"Tieh-kung-chang"}},{"type":"Point","coordinates":[126.22071838378906,43.834007263183594],"properties":{"NOMBRE":"Soudengzhan"}},{"type":"Point","coordinates":[81.06415557861328,43.82880783081055],"properties":{"NOMBRE":"Pei-shin-su-meng"}},{"type":"Point","coordinates":[127.51991271972656,43.828128814697266],"properties":{"NOMBRE":"I-chi-kang-tzu"}},{"type":"Point","coordinates":[90.27339172363281,43.82303237915039],"properties":{"NOMBRE":"MORI"}},{"type":"Point","coordinates":[83.08432006835938,43.82068634033203],"properties":{"NOMBRE":"Shang-wu-la-ssu-tai"}},{"type":"Point","coordinates":[90.01390075683594,43.811729431152344],"properties":{"NOMBRE":"Tung-cheng-kou"}},{"type":"Point","coordinates":[81.65370178222656,43.80070495605469],"properties":{"NOMBRE":"Dolan Yuz"}},{"type":"Point","coordinates":[81.24803161621094,43.7979736328125],"properties":{"NOMBRE":"Nai-man-su-meng"}},{"type":"Point","coordinates":[127.16179656982422,43.795711517333984],"properties":{"NOMBRE":"JIAOHE"}},{"type":"Point","coordinates":[82.49751281738281,43.78362274169922],"properties":{"NOMBRE":"Nilka"}},{"type":"Point","coordinates":[87.58651733398438,43.78266525268555],"properties":{"NOMBRE":"URUMQI"}},{"type":"Point","coordinates":[94.98919677734375,43.7805290222168],"properties":{"NOMBRE":"Nom"}},{"type":"Point","coordinates":[124.22335815429688,43.774959564208984],"properties":{"NOMBRE":"Shiwu"}},{"type":"Point","coordinates":[125.16136169433594,43.771141052246094],"properties":{"NOMBRE":"DATUN"}},{"type":"Point","coordinates":[89.12245178222656,43.76189041137695],"properties":{"NOMBRE":"Pa-no-pa"}},{"type":"Point","coordinates":[89.5115966796875,43.75762939453125],"properties":{"NOMBRE":"Chi-pu-ku"}},{"type":"Point","coordinates":[82.63162994384766,43.748329162597656],"properties":{"NOMBRE":"Pa-tu-lun"}},{"type":"Point","coordinates":[91.170166015625,43.747467041015625],"properties":{"NOMBRE":"Dashitou"}},{"type":"Point","coordinates":[125.67696380615234,43.74542236328125],"properties":{"NOMBRE":"XINAN"}},{"type":"Point","coordinates":[119.74751281738281,43.738609313964844],"properties":{"NOMBRE":"Fan-chia"}},{"type":"Point","coordinates":[130.85879516601562,43.73807907104492],"properties":{"NOMBRE":"Laoheishan"}},{"type":"Point","coordinates":[118.51371765136719,43.732017517089844],"properties":{"NOMBRE":"Tai-pa-a-li"}},{"type":"Point","coordinates":[130.34100341796875,43.72718811035156],"properties":{"NOMBRE":"Luozigou"}},{"type":"Point","coordinates":[92.0426254272461,43.723915100097656],"properties":{"NOMBRE":"Shih-chuan-tzu"}},{"type":"Point","coordinates":[116.63807678222656,43.72353744506836],"properties":{"NOMBRE":"Ho-li-tu-su-mu"}},{"type":"Point","coordinates":[122.80137634277344,43.71848678588867],"properties":{"NOMBRE":"Dalin"}},{"type":"Point","coordinates":[120.77324676513672,43.717681884765625],"properties":{"NOMBRE":"Tui-pi-ai-la"}},{"type":"Point","coordinates":[122.50591278076172,43.716163635253906],"properties":{"NOMBRE":"Qianjiadian"}},{"type":"Point","coordinates":[81.30274200439453,43.71584701538086],"properties":{"NOMBRE":"Kai-na-ko"}},{"type":"Point","coordinates":[125.07013702392578,43.712684631347656],"properties":{"NOMBRE":"FANJIATUN"}},{"type":"Point","coordinates":[114.643310546875,43.7109260559082],"properties":{"NOMBRE":"Honggor"}},{"type":"Point","coordinates":[93.10661315917969,43.710174560546875],"properties":{"NOMBRE":"Ta-hu"}},{"type":"Point","coordinates":[119.31365966796875,43.70927047729492],"properties":{"NOMBRE":"Pai-cha-ti"}},{"type":"Point","coordinates":[90.7420883178711,43.70844268798828],"properties":{"NOMBRE":"Wu-lan-wu-su"}},{"type":"Point","coordinates":[129.44483947753906,43.70523452758789],"properties":{"NOMBRE":"Chunyang"}},{"type":"Point","coordinates":[127.43866729736328,43.704837799072266],"properties":{"NOMBRE":"Naizishan"}},{"type":"Point","coordinates":[126.34098815917969,43.699851989746094],"properties":{"NOMBRE":"Kouqian"}},{"type":"Point","coordinates":[120.42381286621094,43.698604583740234],"properties":{"NOMBRE":"Daodemiao"}},{"type":"Point","coordinates":[125.97421264648438,43.69395065307617],"properties":{"NOMBRE":"Chaluhe"}},{"type":"Point","coordinates":[123.54387664794922,43.69231033325195],"properties":{"NOMBRE":"Wohutun"}},{"type":"Point","coordinates":[124.85875701904297,43.68555450439453],"properties":{"NOMBRE":"Heilinzi"}},{"type":"Point","coordinates":[123.88963317871094,43.6798095703125],"properties":{"NOMBRE":"Shuangshan"}},{"type":"Point","coordinates":[81.67218780517578,43.675907135009766],"properties":{"NOMBRE":"Ta-mu"}},{"type":"Point","coordinates":[128.59112548828125,43.666812896728516],"properties":{"NOMBRE":"Kankoutzu"}},{"type":"Point","coordinates":[89.7324447631836,43.66315841674805],"properties":{"NOMBRE":"Banjiegou"}},{"type":"Point","coordinates":[123.31912231445312,43.65652084350586],"properties":{"NOMBRE":"Bayan Tal"}},{"type":"Point","coordinates":[87.71009063720703,43.65410232543945],"properties":{"NOMBRE":"Chi-chi-tsao"}},{"type":"Point","coordinates":[124.51194763183594,43.6525993347168],"properties":{"NOMBRE":"Xiaochengzi"}},{"type":"Point","coordinates":[111.96640014648438,43.652427673339844],"properties":{"NOMBRE":"Erenhot"}},{"type":"Point","coordinates":[131.1331024169922,43.64369583129883],"properties":{"NOMBRE":"Pai-tao-shan-tzu"}},{"type":"Point","coordinates":[90.069091796875,43.63670349121094],"properties":{"NOMBRE":"Shuimogou"}},{"type":"Point","coordinates":[113.83885192871094,43.626548767089844],"properties":{"NOMBRE":"Cha-han-su-mu"}},{"type":"Point","coordinates":[120.0973892211914,43.624725341796875],"properties":{"NOMBRE":"Pai-yin-pao-tzu"}},{"type":"Point","coordinates":[122.27033996582031,43.61223220825195],"properties":{"NOMBRE":"TONGLIAO"}},{"type":"Point","coordinates":[129.42601013183594,43.606239318847656],"properties":{"NOMBRE":"Tianqiaoling"}},{"type":"Point","coordinates":[118.04411315917969,43.599395751953125],"properties":{"NOMBRE":"Linxi"}},{"type":"Point","coordinates":[121.302978515625,43.59615707397461],"properties":{"NOMBRE":"Kailu"}},{"type":"Point","coordinates":[119.70680236816406,43.59355926513672],"properties":{"NOMBRE":"Chiu-ching"}},{"type":"Point","coordinates":[93.0102310180664,43.59196090698242],"properties":{"NOMBRE":"BARKOL"}},{"type":"Point","coordinates":[122.67450714111328,43.590579986572266],"properties":{"NOMBRE":"Ulan Od"}},{"type":"Point","coordinates":[93.29484558105469,43.58997344970703],"properties":{"NOMBRE":"San-hsien-hu"}},{"type":"Point","coordinates":[82.5670166015625,43.58011245727539],"properties":{"NOMBRE":"Kunas Chang"}},{"type":"Point","coordinates":[126.72013854980469,43.57008743286133],"properties":{"NOMBRE":"Wangqi"}},{"type":"Point","coordinates":[128.41888427734375,43.55611038208008],"properties":{"NOMBRE":"Guandi"}},{"type":"Point","coordinates":[127.81816101074219,43.54937744140625],"properties":{"NOMBRE":"Weihuling"}},{"type":"Point","coordinates":[128.01202392578125,43.54799270629883],"properties":{"NOMBRE":"Huangnihe"}},{"type":"Point","coordinates":[80.77679443359375,43.545989990234375],"properties":{"NOMBRE":"Tu-la-ta"}},{"type":"Point","coordinates":[87.35533905029297,43.53908157348633],"properties":{"NOMBRE":"Huang-tsao-liang"}},{"type":"Point","coordinates":[117.84087371826172,43.53890609741211],"properties":{"NOMBRE":"Yu-chou-ti"}},{"type":"Point","coordinates":[125.00138854980469,43.53636169433594],"properties":{"NOMBRE":"Wu-chia-tzu"}},{"type":"Point","coordinates":[115.07628631591797,43.535404205322266],"properties":{"NOMBRE":"Qagan Nur"}},{"type":"Point","coordinates":[125.6709213256836,43.522457122802734],"properties":{"NOMBRE":"Shuangyang"}},{"type":"Point","coordinates":[118.66890716552734,43.51913070678711],"properties":{"NOMBRE":"Daban"}},{"type":"Point","coordinates":[114.49897766113281,43.51143264770508],"properties":{"NOMBRE":"La-erh-han-su-mu"}},{"type":"Point","coordinates":[123.50176239013672,43.506195068359375],"properties":{"NOMBRE":"ZHENGJIATUN"}},{"type":"Point","coordinates":[124.81073760986328,43.5058479309082],"properties":{"NOMBRE":"GONGZHULING"}},{"type":"Point","coordinates":[91.62259674072266,43.49168395996094],"properties":{"NOMBRE":"Qijiaojing"}},{"type":"Point","coordinates":[112.14639282226562,43.47956085205078],"properties":{"NOMBRE":"Hsi-li"}},{"type":"Point","coordinates":[82.22904968261719,43.47924041748047],"properties":{"NOMBRE":"Gongliu"}},{"type":"Point","coordinates":[124.283447265625,43.4676399230957],"properties":{"NOMBRE":"Yushutai"}},{"type":"Point","coordinates":[82.5699462890625,43.4642219543457],"properties":{"NOMBRE":"Ka-la-pu--la-chu"}},{"type":"Point","coordinates":[122.20155334472656,43.46213150024414],"properties":{"NOMBRE":"Melhit"}},{"type":"Point","coordinates":[126.17025756835938,43.4610595703125],"properties":{"NOMBRE":"Shuanghezhen"}},{"type":"Point","coordinates":[129.60595703125,43.438377380371094],"properties":{"NOMBRE":"Shuanghe"}},{"type":"Point","coordinates":[83.25103759765625,43.43723678588867],"properties":{"NOMBRE":"Xinyuan"}},{"type":"Point","coordinates":[88.92449188232422,43.43312454223633],"properties":{"NOMBRE":"Shih-yao-tzu"}},{"type":"Point","coordinates":[93.91851043701172,43.4305534362793],"properties":{"NOMBRE":"Ko-lao-erh-pu-la-ko"}},{"type":"Point","coordinates":[131.11582946777344,43.42884063720703],"properties":{"NOMBRE":"I-hsien-chia"}},{"type":"Point","coordinates":[83.04520416259766,43.41893005371094],"properties":{"NOMBRE":"Ta-erh-ti"}},{"type":"Point","coordinates":[88.10131072998047,43.41685104370117],"properties":{"NOMBRE":"Yanhu"}},{"type":"Point","coordinates":[125.9138412475586,43.413673400878906],"properties":{"NOMBRE":"Shaoguo"}},{"type":"Point","coordinates":[83.75686645507812,43.41208267211914],"properties":{"NOMBRE":"A-la-tu-po"}},{"type":"Point","coordinates":[82.3369140625,43.405399322509766],"properties":{"NOMBRE":"Pu-lu-le-tai-fei-chich"}},{"type":"Point","coordinates":[92.09062957763672,43.37789535522461],"properties":{"NOMBRE":"Yiwanquan"}},{"type":"Point","coordinates":[93.6272964477539,43.37111282348633],"properties":{"NOMBRE":"Shih-wu-li-chuang-tzu"}},{"type":"Point","coordinates":[128.2279052734375,43.36225509643555],"properties":{"NOMBRE":"DUNHUA"}},{"type":"Point","coordinates":[122.90296173095703,43.35917663574219],"properties":{"NOMBRE":"Mogato"}},{"type":"Point","coordinates":[123.71163177490234,43.35392761230469],"properties":{"NOMBRE":"Sanjiangkou"}},{"type":"Point","coordinates":[88.3193130493164,43.35143280029297],"properties":{"NOMBRE":"Dabancheng"}},{"type":"Point","coordinates":[124.5781478881836,43.33732223510742],"properties":{"NOMBRE":"Guojiadian"}},{"type":"Point","coordinates":[125.29440307617188,43.337039947509766],"properties":{"NOMBRE":"YITONG"}},{"type":"Point","coordinates":[123.27903747558594,43.335350036621094],"properties":{"NOMBRE":"Kuo-la-kuo-tai"}},{"type":"Point","coordinates":[125.72270965576172,43.33186340332031],"properties":{"NOMBRE":"Tuding"}},{"type":"Point","coordinates":[84.01016998291016,43.32203674316406],"properties":{"NOMBRE":"Narat"}},{"type":"Point","coordinates":[115.635986328125,43.31688690185547],"properties":{"NOMBRE":"Bayan Gol"}},{"type":"Point","coordinates":[129.7376251220703,43.31576156616211],"properties":{"NOMBRE":"Wangqing"}},{"type":"Point","coordinates":[112.75980377197266,43.312950134277344],"properties":{"NOMBRE":"Orgon Tal"}},{"type":"Point","coordinates":[114.22318267822266,43.31277847290039],"properties":{"NOMBRE":"Qagan Nur"}},{"type":"Point","coordinates":[124.322021484375,43.301395416259766],"properties":{"NOMBRE":"Lishu"}},{"type":"Point","coordinates":[121.21060943603516,43.301273345947266],"properties":{"NOMBRE":"Dongming"}},{"type":"Point","coordinates":[128.50421142578125,43.297611236572266],"properties":{"NOMBRE":"Dashitou"}},{"type":"Point","coordinates":[130.6796417236328,43.29655456542969],"properties":{"NOMBRE":"Duhuangzi"}},{"type":"Point","coordinates":[125.12786102294922,43.29336166381836],"properties":{"NOMBRE":"Dagushan"}},{"type":"Point","coordinates":[126.00843811035156,43.292274475097656],"properties":{"NOMBRE":"YANTONGSHAN"}},{"type":"Point","coordinates":[127.35697174072266,43.29132080078125],"properties":{"NOMBRE":"Hengdaozi"}},{"type":"Point","coordinates":[119.24712371826172,43.28122329711914],"properties":{"NOMBRE":"Jo-she-la"}},{"type":"Point","coordinates":[120.28086853027344,43.27549743652344],"properties":{"NOMBRE":"Diyantu"}},{"type":"Point","coordinates":[121.70011901855469,43.25214767456055],"properties":{"NOMBRE":"A-pu-hai"}},{"type":"Point","coordinates":[118.05293273925781,43.24559020996094],"properties":{"NOMBRE":"Pai-yin-pan-kou-men"}},{"type":"Point","coordinates":[117.50169372558594,43.24509811401367],"properties":{"NOMBRE":"Jing peng"}},{"type":"Point","coordinates":[119.62930297851562,43.243316650390625],"properties":{"NOMBRE":"Hails"}},{"type":"Point","coordinates":[94.65991973876953,43.23009490966797],"properties":{"NOMBRE":"Yiwu"}},{"type":"Point","coordinates":[91.73825073242188,43.21516036987305],"properties":{"NOMBRE":"San-chien-fang"}},{"type":"Point","coordinates":[81.83435821533203,43.212806701660156],"properties":{"NOMBRE":"Te-ko-ssu"}},{"type":"Point","coordinates":[121.04459381103516,43.21196365356445],"properties":{"NOMBRE":"Baixingt"}},{"type":"Point","coordinates":[88.52628326416016,43.198604583740234],"properties":{"NOMBRE":"Tien-shan"}},{"type":"Point","coordinates":[126.49751281738281,43.1964225769043],"properties":{"NOMBRE":"Badaohezi"}},{"type":"Point","coordinates":[131.06741333007812,43.19185256958008],"properties":{"NOMBRE":"Chunhua"}},{"type":"Point","coordinates":[124.04866027832031,43.18986511230469],"properties":{"NOMBRE":"BAMIANCHENG"}},{"type":"Point","coordinates":[93.68147277832031,43.18419647216797],"properties":{"NOMBRE":"Nanshankou"}},{"type":"Point","coordinates":[124.3650131225586,43.1614875793457],"properties":{"NOMBRE":"SIPING"}},{"type":"Point","coordinates":[129.16502380371094,43.160308837890625],"properties":{"NOMBRE":"Sandao"}},{"type":"Point","coordinates":[89.92868041992188,43.159828186035156],"properties":{"NOMBRE":"Ao-erh-tang"}},{"type":"Point","coordinates":[81.12017822265625,43.15799331665039],"properties":{"NOMBRE":"Zhaosu"}},{"type":"Point","coordinates":[88.86253356933594,43.14642333984375],"properties":{"NOMBRE":"Turpan Zhan"}},{"type":"Point","coordinates":[126.78114318847656,43.14555740356445],"properties":{"NOMBRE":"Jinsha"}},{"type":"Point","coordinates":[92.67469024658203,43.144569396972656],"properties":{"NOMBRE":"Ya-tzu-chuan"}},{"type":"Point","coordinates":[121.8567886352539,43.14231491088867],"properties":{"NOMBRE":"Qulut"}},{"type":"Point","coordinates":[123.65289306640625,43.141563415527344],"properties":{"NOMBRE":"Guyushu"}},{"type":"Point","coordinates":[91.29821014404297,43.13999938964844],"properties":{"NOMBRE":"Shisanjianfang"}},{"type":"Point","coordinates":[127.08718872070312,43.1318359375],"properties":{"NOMBRE":"Ta-mu-chi-ho"}},{"type":"Point","coordinates":[127.6195297241211,43.12752151489258],"properties":{"NOMBRE":"Ta-shih-tou-ho-tzu"}},{"type":"Point","coordinates":[118.6968765258789,43.126495361328125],"properties":{"NOMBRE":"An-chia-wo-pu"}},{"type":"Point","coordinates":[114.47799682617188,43.11685562133789],"properties":{"NOMBRE":"Bayanggin Sum"}},{"type":"Point","coordinates":[88.50174713134766,43.11113739013672],"properties":{"NOMBRE":"Xiaocaoche"}},{"type":"Point","coordinates":[89.64220428466797,43.1092529296875],"properties":{"NOMBRE":"Sheng-chin-tai"}},{"type":"Point","coordinates":[124.84066009521484,43.10769271850586],"properties":{"NOMBRE":"Shiling"}},{"type":"Point","coordinates":[129.51699829101562,43.105079650878906],"properties":{"NOMBRE":"Yilan"}},{"type":"Point","coordinates":[122.90924835205078,43.09658432006836],"properties":{"NOMBRE":"Jargalang"}},{"type":"Point","coordinates":[128.66807556152344,43.09241485595703],"properties":{"NOMBRE":"Mingyue"}},{"type":"Point","coordinates":[130.74794006347656,43.091461181640625],"properties":{"NOMBRE":"Wudaogou"}},{"type":"Point","coordinates":[90.48213958740234,43.0911979675293],"properties":{"NOMBRE":"Shanshan-Zhan"}},{"type":"Point","coordinates":[84.8218002319336,43.08029556274414],"properties":{"NOMBRE":"Mu-tung-pai-hsing"}},{"type":"Point","coordinates":[114.76748657226562,43.06435775756836],"properties":{"NOMBRE":"Wu-lun-no-erh-su mu"}},{"type":"Point","coordinates":[125.28761291503906,43.05686569213867],"properties":{"NOMBRE":"Jianan"}},{"type":"Point","coordinates":[84.13887023925781,43.03081130981445],"properties":{"NOMBRE":"Bayanbulak"}},{"type":"Point","coordinates":[92.92403411865234,43.02772521972656],"properties":{"NOMBRE":"LIUSHUQUAN"}},{"type":"Point","coordinates":[113.10307312011719,43.025962829589844],"properties":{"NOMBRE":"Ta-lai-chu-lung-su-mu"}},{"type":"Point","coordinates":[126.43903350830078,43.01707458496094],"properties":{"NOMBRE":"Hulan"}},{"type":"Point","coordinates":[95.03767395019531,43.01337432861328],"properties":{"NOMBRE":"Mogoy"}},{"type":"Point","coordinates":[121.4191665649414,43.007965087890625],"properties":{"NOMBRE":"Mangzhan"}},{"type":"Point","coordinates":[124.13939666748047,43.007041931152344],"properties":{"NOMBRE":"Cilucun"}},{"type":"Point","coordinates":[90.64910125732422,42.992637634277344],"properties":{"NOMBRE":"Qiktim"}},{"type":"Point","coordinates":[130.1326446533203,42.9909782409668],"properties":{"NOMBRE":"Mijiang"}},{"type":"Point","coordinates":[89.17841339111328,42.973793029785156],"properties":{"NOMBRE":"TURPAN"}},{"type":"Point","coordinates":[126.7434310913086,42.965335845947266],"properties":{"NOMBRE":"HUADIAN"}},{"type":"Point","coordinates":[129.84005737304688,42.95920944213867],"properties":{"NOMBRE":"TUMEN"}},{"type":"Point","coordinates":[115.40570831298828,42.949520111083984],"properties":{"NOMBRE":"Cha-ko-ssu-tai"}},{"type":"Point","coordinates":[122.33793640136719,42.94658279418945],"properties":{"NOMBRE":"Ganjig"}},{"type":"Point","coordinates":[126.058349609375,42.93272018432617],"properties":{"NOMBRE":"PANSHI"}},{"type":"Point","coordinates":[119.01685333251953,42.92820739746094],"properties":{"NOMBRE":"Wudan"}},{"type":"Point","coordinates":[117.92806243896484,42.910823822021484],"properties":{"NOMBRE":"Chang-sheng-kou-men"}},{"type":"Point","coordinates":[123.7960433959961,42.9102897644043],"properties":{"NOMBRE":"Baolizhen"}},{"type":"Point","coordinates":[129.5115509033203,42.9067268371582],"properties":{"NOMBRE":"YANJI"}},{"type":"Point","coordinates":[89.5514907836914,42.904502868652344],"properties":{"NOMBRE":"Erh-pao"}},{"type":"Point","coordinates":[125.1339111328125,42.902889251708984],"properties":{"NOMBRE":"LIAOYUAN"}},{"type":"Point","coordinates":[129.15890502929688,42.88554382324219],"properties":{"NOMBRE":"Laotougou"}},{"type":"Point","coordinates":[89.93978118896484,42.88127899169922],"properties":{"NOMBRE":"Ai-ai-ssu"}},{"type":"Point","coordinates":[129.3597412109375,42.872806549072266],"properties":{"NOMBRE":"Chaoyangchuan"}},{"type":"Point","coordinates":[90.69446563720703,42.868629455566406],"properties":{"NOMBRE":"Ta-shih-tou"}},{"type":"Point","coordinates":[130.35984802246094,42.86283493041992],"properties":{"NOMBRE":"HUNCHUN"}},{"type":"Point","coordinates":[90.20396423339844,42.86026382446289],"properties":{"NOMBRE":"SHANSHAN"}},{"type":"Point","coordinates":[89.37244415283203,42.8499755859375],"properties":{"NOMBRE":"A-lu-ju-chi-kan-erh"}},{"type":"Point","coordinates":[116.36139678955078,42.848209381103516],"properties":{"NOMBRE":"Sain Hudag"}},{"type":"Point","coordinates":[118.59874725341797,42.84652328491211],"properties":{"NOMBRE":"Guangdegong"}},{"type":"Point","coordinates":[120.64335632324219,42.84038162231445],"properties":{"NOMBRE":"Daqin Tal"}},{"type":"Point","coordinates":[87.31507873535156,42.83930587768555],"properties":{"NOMBRE":"Ulanlinggi"}},{"type":"Point","coordinates":[93.50438690185547,42.838497161865234],"properties":{"NOMBRE":"HAMI"}},{"type":"Point","coordinates":[81.1731185913086,42.827796936035156],"properties":{"NOMBRE":"Symtas"}},{"type":"Point","coordinates":[117.61981964111328,42.82151412963867],"properties":{"NOMBRE":"Chang-hua-lin"}},{"type":"Point","coordinates":[114.07819366455078,42.81053924560547],"properties":{"NOMBRE":"Che-le tu-miao"}},{"type":"Point","coordinates":[129.49468994140625,42.80617141723633],"properties":{"NOMBRE":"CHONGSONG"}},{"type":"Point","coordinates":[89.6696548461914,42.806148529052734],"properties":{"NOMBRE":"Yang-hai"}},{"type":"Point","coordinates":[123.70480346679688,42.796485900878906],"properties":{"NOMBRE":"Jinjiazhen"}},{"type":"Point","coordinates":[88.6434555053711,42.79438400268555],"properties":{"NOMBRE":"TOKSUN"}},{"type":"Point","coordinates":[113.79086303710938,42.78664016723633],"properties":{"NOMBRE":"Saihan Olji"}},{"type":"Point","coordinates":[123.99156188964844,42.78106689453125],"properties":{"NOMBRE":"LAOCHENGZHEN"}},{"type":"Point","coordinates":[128.21726989746094,42.77916717529297],"properties":{"NOMBRE":"Dongqing"}},{"type":"Point","coordinates":[124.12889862060547,42.77241134643555],"properties":{"NOMBRE":"Changtu"}},{"type":"Point","coordinates":[94.55274200439453,42.77006530761719],"properties":{"NOMBRE":"Chin-cheng"}},{"type":"Point","coordinates":[129.42474365234375,42.76902389526367],"properties":{"NOMBRE":"LONGJING"}},{"type":"Point","coordinates":[129.02105712890625,42.76803970336914],"properties":{"NOMBRE":"Taudaogou"}},{"type":"Point","coordinates":[86.2978744506836,42.760841369628906],"properties":{"NOMBRE":"Balguntay"}},{"type":"Point","coordinates":[112.66088104248047,42.741546630859375],"properties":{"NOMBRE":"Saihan Tal"}},{"type":"Point","coordinates":[123.35164642333984,42.74099349975586],"properties":{"NOMBRE":"Kangping"}},{"type":"Point","coordinates":[119.01712036132812,42.74022674560547],"properties":{"NOMBRE":"Xiwopu"}},{"type":"Point","coordinates":[80.75787353515625,42.73662567138672],"properties":{"NOMBRE":"A-ko-su"}},{"type":"Point","coordinates":[124.71562194824219,42.73405456542969],"properties":{"NOMBRE":"Xifeng"}},{"type":"Point","coordinates":[119.64370727539062,42.72693634033203],"properties":{"NOMBRE":"Hongshan"}},{"type":"Point","coordinates":[121.77877044677734,42.7263069152832],"properties":{"NOMBRE":"Hure"}},{"type":"Point","coordinates":[129.76100158691406,42.70201873779297],"properties":{"NOMBRE":"KAISHANTUN"}},{"type":"Point","coordinates":[128.96456909179688,42.70194625854492],"properties":{"NOMBRE":"Wolong"}},{"type":"Point","coordinates":[122.46788787841797,42.69493103027344],"properties":{"NOMBRE":"Zhanggutai"}},{"type":"Point","coordinates":[112.30647277832031,42.69157791137695],"properties":{"NOMBRE":"Cha-chia-ho-so"}},{"type":"Point","coordinates":[116.85360717773438,42.689449310302734],"properties":{"NOMBRE":"Hsia-wo-pu-ho-tung"}},{"type":"Point","coordinates":[114.75605773925781,42.685302734375],"properties":{"NOMBRE":"Cha-kan-wu-su"}},{"type":"Point","coordinates":[80.57295989990234,42.68290328979492],"properties":{"NOMBRE":"Chi-tieh-li-ko"}},{"type":"Point","coordinates":[126.03138732910156,42.67656326293945],"properties":{"NOMBRE":"CHAOYANG"}},{"type":"Point","coordinates":[117.14631652832031,42.67426300048828],"properties":{"NOMBRE":"Shih-men-tzu"}},{"type":"Point","coordinates":[89.12842559814453,42.67293930053711],"properties":{"NOMBRE":"Pei-chan-tu-erh"}},{"type":"Point","coordinates":[125.53153228759766,42.670005798339844],"properties":{"NOMBRE":"DONGFENG"}},{"type":"Point","coordinates":[129.12646484375,42.66520309448242],"properties":{"NOMBRE":"Bajiazi"}},{"type":"Point","coordinates":[124.25411987304688,42.66395950317383],"properties":{"NOMBRE":"Weiyuanpu"}},{"type":"Point","coordinates":[89.68994903564453,42.6613655090332],"properties":{"NOMBRE":"Shai-tai-kan-erh"}},{"type":"Point","coordinates":[110.97020721435547,42.66057205200195],"properties":{"NOMBRE":"Tohmin Sum"}},{"type":"Point","coordinates":[86.10272216796875,42.65888595581055],"properties":{"NOMBRE":"Ta-la-mu-teng"}},{"type":"Point","coordinates":[112.51437377929688,42.649112701416016],"properties":{"NOMBRE":"Na-mu-sang-tan"}},{"type":"Point","coordinates":[118.69059753417969,42.64883804321289],"properties":{"NOMBRE":"Qiatou"}},{"type":"Point","coordinates":[128.108154296875,42.64606475830078],"properties":{"NOMBRE":"Liangjiangkou"}},{"type":"Point","coordinates":[125.84867858886719,42.64323806762695],"properties":{"NOMBRE":"HAILONG"}},{"type":"Point","coordinates":[124.94493103027344,42.620216369628906],"properties":{"NOMBRE":"Zhenxing"}},{"type":"Point","coordinates":[123.21971130371094,42.618125915527344],"properties":{"NOMBRE":"Fangjiatun"}},{"type":"Point","coordinates":[126.255126953125,42.61738204956055],"properties":{"NOMBRE":"Huinan"}},{"type":"Point","coordinates":[115.14044952392578,42.61146926879883],"properties":{"NOMBRE":"I-ho-no-erh"}},{"type":"Point","coordinates":[124.07791900634766,42.59980773925781],"properties":{"NOMBRE":"LAOCHENG"}},{"type":"Point","coordinates":[120.5380630493164,42.579837799072266],"properties":{"NOMBRE":"Xiawa"}},{"type":"Point","coordinates":[86.86363220214844,42.57403564453125],"properties":{"NOMBRE":"Niu-ssu-ken"}},{"type":"Point","coordinates":[128.33843994140625,42.569095611572266],"properties":{"NOMBRE":"Songjiang"}},{"type":"Point","coordinates":[112.29181671142578,42.55904769897461],"properties":{"NOMBRE":"No-erh-tu-kou"}},{"type":"Point","coordinates":[118.48641204833984,42.55559158325195],"properties":{"NOMBRE":"Tou-pa-huo"}},{"type":"Point","coordinates":[122.50279998779297,42.55279541015625],"properties":{"NOMBRE":"Houxinqin"}},{"type":"Point","coordinates":[93.72112274169922,42.548580169677734],"properties":{"NOMBRE":"Lao-wu"}},{"type":"Point","coordinates":[114.05883026123047,42.543304443359375],"properties":{"NOMBRE":"Po-erh-pei"}},{"type":"Point","coordinates":[110.7568588256836,42.542945861816406],"properties":{"NOMBRE":"Erubin Oboo"}},{"type":"Point","coordinates":[129.008544921875,42.542205810546875],"properties":{"NOMBRE":"HELONG"}},{"type":"Point","coordinates":[110.11872863769531,42.5274772644043],"properties":{"NOMBRE":"Mandal"}},{"type":"Point","coordinates":[124.0348892211914,42.52540588378906],"properties":{"NOMBRE":"KAIYUAN"}},{"type":"Point","coordinates":[117.5444107055664,42.52531814575195],"properties":{"NOMBRE":"Chuan-hsin-tien"}},{"type":"Point","coordinates":[125.67032623291016,42.52438735961914],"properties":{"NOMBRE":"MEIHEKOU"}},{"type":"Point","coordinates":[94.15100860595703,42.5234375],"properties":{"NOMBRE":"Lo-to-chuan-tzu"}},{"type":"Point","coordinates":[127.80101013183594,42.515750885009766],"properties":{"NOMBRE":"Lushuihe"}},{"type":"Point","coordinates":[124.4273681640625,42.50634002685547],"properties":{"NOMBRE":"Diaopitun"}},{"type":"Point","coordinates":[123.40567779541016,42.50169372558594],"properties":{"NOMBRE":"FAKU"}},{"type":"Point","coordinates":[117.10841369628906,42.48844528198242],"properties":{"NOMBRE":"Yu-chia-tien"}},{"type":"Point","coordinates":[122.1246337890625,42.48011016845703],"properties":{"NOMBRE":"Hartao"}},{"type":"Point","coordinates":[97.80467224121094,42.46342849731445],"properties":{"NOMBRE":"Ha-la-shan-tan"}},{"type":"Point","coordinates":[97.14288330078125,42.45418930053711],"properties":{"NOMBRE":"Lu-tsao-kou"}},{"type":"Point","coordinates":[113.08513641357422,42.45243453979492],"properties":{"NOMBRE":"Pen-ko-wu-su"}},{"type":"Point","coordinates":[112.91171264648438,42.447486877441406],"properties":{"NOMBRE":"Ondor Sum"}},{"type":"Point","coordinates":[126.15411376953125,42.43533706665039],"properties":{"NOMBRE":"Yangzishao"}},{"type":"Point","coordinates":[111.05792999267578,42.42393112182617],"properties":{"NOMBRE":"Baruun Sume"}},{"type":"Point","coordinates":[115.41413116455078,42.41682052612305],"properties":{"NOMBRE":"Pao-le-ken-tao-hai"}},{"type":"Point","coordinates":[112.86190032958984,42.413997650146484],"properties":{"NOMBRE":"Jurh"}},{"type":"Point","coordinates":[121.40467071533203,42.40768051147461],"properties":{"NOMBRE":"Fuxingdi"}},{"type":"Point","coordinates":[126.80226135253906,42.39064025878906],"properties":{"NOMBRE":"QINGYU"}},{"type":"Point","coordinates":[118.29670715332031,42.38468551635742],"properties":{"NOMBRE":"Yu-nan-ying-tzu"}},{"type":"Point","coordinates":[122.53179168701172,42.38422775268555],"properties":{"NOMBRE":"ZHANG WU"}},{"type":"Point","coordinates":[110.26683807373047,42.38115692138672],"properties":{"NOMBRE":"Tergetiin Yihe"}},{"type":"Point","coordinates":[113.19802856445312,42.37241744995117],"properties":{"NOMBRE":"Ho-lao-ko-miao"}},{"type":"Point","coordinates":[119.18766021728516,42.37023162841797],"properties":{"NOMBRE":"Sa-shui-po"}},{"type":"Point","coordinates":[116.17549133300781,42.364559173583984],"properties":{"NOMBRE":"Chao-nai-men-su-mu"}},{"type":"Point","coordinates":[125.41954040527344,42.359928131103516],"properties":{"NOMBRE":"SHANCHENGZHEN"}},{"type":"Point","coordinates":[123.01283264160156,42.34994125366211],"properties":{"NOMBRE":"Xiushuihezi"}},{"type":"Point","coordinates":[125.33989715576172,42.34843826293945],"properties":{"NOMBRE":"Longshan"}},{"type":"Point","coordinates":[127.55010223388672,42.347537994384766],"properties":{"NOMBRE":"Quanyang"}},{"type":"Point","coordinates":[113.69415283203125,42.3300895690918],"properties":{"NOMBRE":"Yeh-lieh"}},{"type":"Point","coordinates":[127.27349090576172,42.324344635009766],"properties":{"NOMBRE":"Fusong"}},{"type":"Point","coordinates":[113.84123229980469,42.3166618347168],"properties":{"NOMBRE":"Han-ka-la-wa-su-mu"}},{"type":"Point","coordinates":[86.38554382324219,42.31562423706055],"properties":{"NOMBRE":"Hejing"}},{"type":"Point","coordinates":[121.9133071899414,42.315452575683594],"properties":{"NOMBRE":"Wuhuan chi"}},{"type":"Point","coordinates":[120.68904113769531,42.31451416015625],"properties":{"NOMBRE":"Bugt"}},{"type":"Point","coordinates":[114.9842529296875,42.310516357421875],"properties":{"NOMBRE":"QAGAN NUR"}},{"type":"Point","coordinates":[123.37267303466797,42.30965805053711],"properties":{"NOMBRE":"Dagujiazio"}},{"type":"Point","coordinates":[117.71510314941406,42.29835510253906],"properties":{"NOMBRE":"Xinbo"}},{"type":"Point","coordinates":[85.96928405761719,42.29682159423828],"properties":{"NOMBRE":"Ha-erh-mu-tung"}},{"type":"Point","coordinates":[120.22895050048828,42.29524612426758],"properties":{"NOMBRE":"Baitazi"}},{"type":"Point","coordinates":[86.84335327148438,42.29230499267578],"properties":{"NOMBRE":"Hoxud"}},{"type":"Point","coordinates":[123.83114624023438,42.29096984863281],"properties":{"NOMBRE":"TIELING"}},{"type":"Point","coordinates":[94.01170349121094,42.28943634033203],"properties":{"NOMBRE":"Yen-tun"}},